date,time,longitude,latitude,attack_type,location_description,nearest_country,eez_country,shore_distance,shore_longitude,shore_latitude,attack_description,vessel_name,vessel_type,vessel_status,data_source
02-01-1993,NA,116.9667,19.7,NA,Hong Kong - Luzon - Hainan,CHN,TWN,357.5023726,115.8259561,22.74664352,NA,Mv Cosmic Leader,NA,NA,mappingpiracy
04-01-1993,NA,116,22.35,NA,Hong Kong - Luzon - Hainan,CHN,CHN,47.43157252,115.8259561,22.74664352,NA,Mv Tricolor Star III,NA,NA,mappingpiracy
06-01-1993,NA,115.25,19.67,NA,Hong Kong - Luzon - Hainan,CHN,TWN,280.8118709,114.3025008,22.04486726,NA,Mv Arktis Star,NA,NA,mappingpiracy
08-01-1993,NA,124.5833,29.9,NA,East China Sea,CHN,CHN,209.9233962,122.4096786,29.91120026,NA,Ussurijsk,NA,NA,mappingpiracy
12-01-1993,NA,120.2667,18.1333333,NA,Hong Kong - Luzon - Hainan,PHL,PHL,22.02733208,120.4700627,18.09100983,NA,Mv Chennai Nermai,NA,NA,mappingpiracy
13-01-1993,NA,101.85,9.7173,NA,Gulf of Thailand. South China Sea,KHM,KHM,184.7966407,103.2921656,10.58315664,NA,Emelyan Yaroslavskiy,NA,NA,mappingpiracy
25-01-1993,NA,106.8667,8.5666667,NA,South China Sea,VNM,VNM,27.43734378,106.6557723,8.698879299,NA,Mv Indira Ghandhi,NA,NA,mappingpiracy
26-01-1993,NA,123.5,29,NA,East China Sea,CHN,CHN,141.5155643,122.3951929,29.8333194,NA,Mt Petrobulk Panther,NA,NA,mappingpiracy
26-01-1993,NA,13.25,-8.8,NA,"Luanda, Angola",AGO,AGO,0.509215669,13.24537194,-8.800062758,NA,Mv Bodrog,NA,Anchored,mappingpiracy
26-01-1993,NA,119.4,4.4333333,NA,South China Sea,PHL,PHL,25.37858765,119.4565536,4.655707098,NA,Mv Southern King,NA,NA,mappingpiracy
27-01-1993,NA,13.25,-8.8,NA,"Port of Luanda, Angola",AGO,AGO,0.509215669,13.24537194,-8.800062758,NA,NA,NA,NA,mappingpiracy
04-02-1993,NA,123.1667,25.75,NA,East China Sea,NA,NA,34.60225313,123.5114852,25.7580834,NA,Sukhinichi,NA,NA,mappingpiracy
05-02-1993,NA,7.2267,5.0016667,NA,"Bonny Anchorage, Nigeria",NGA,NGA,31.94602534,7.071787957,4.758124091,NA,Mv Norgas Navigator,NA,Anchored,mappingpiracy
06-02-1993,NA,118.1667,16.5833333,NA,Hong Kong - Luzon - Hainan,PHL,PHL,174.7366959,119.7578231,16.21670157,NA,Mv Hulpha Kluang,NA,NA,mappingpiracy
15-02-1993,NA,121.2995,38.6974,NA,7.4 miles SE of Waglan. South China Sea,CHN,CHN,9.412733696,121.1984969,38.72785065,NA,Mv Marine Peace,NA,NA,mappingpiracy
16-02-1993,NA,118.7167,19.3166667,NA,Hong Kong - Luzon - Hainan,PHL,PHL,214.9032465,120.5608016,18.48676179,NA,Mv Lion,NA,NA,mappingpiracy
16-02-1993,NA,39.3533,-6.775,NA,"Dar-Es-Salam Anchor, Tanzania",TZA,TZA,5.977859498,39.32650801,-6.821954034,NA,Mv Socol 5,NA,NA,mappingpiracy
16-02-1993,NA,111.0333,17.3333333,NA,Hong Kong - Luzon - Hainan,CHN,CHN,107.3275228,111.6028752,16.53335196,NA,Mv Mary Nour,NA,NA,mappingpiracy
16-02-1993,NA,111.2,15.7833333,NA,NA,VNM,VNM,0.475901494,111.1962997,15.78571198,NA,Mt Samuel L. Cobb,NA,NA,mappingpiracy
16-02-1993,NA,39.3533,-6.775,NA,"Dar-Es-Salam Roads, Tanzania",TZA,TZA,5.977859498,39.32650801,-6.821954034,NA,NA,NA,NA,mappingpiracy
18-02-1993,NA,115.25,19.67,NA,Western Luzon. Hong Kong - Luzon - Hainan,CHN,TWN,280.8118709,114.3025008,22.04486726,NA,Mv Aleksandr Tsyurupa,NA,NA,mappingpiracy
25-02-1993,NA,104.4,8.5166667,NA,South China Sea,VNM,VNM,36.79960757,104.722911,8.602687893,NA,Mv Great Amity,NA,NA,mappingpiracy
25-02-1993,NA,124.4333,36.2,NA,East China Sea,KOR,KOR,162.2626611,126.1289169,36.71190013,NA,Mv Komsomolets,NA,NA,mappingpiracy
28-02-1993,NA,67.1457,24.7847,NA,"Base Creek, Anchor. Arabian Sea",PAK,PAK,1.291377263,67.15601647,24.79157136,NA,Mv Alam Sempurna,NA,Anchored,mappingpiracy
01-03-1993,NA,50.5833,8.9333333,NA,Somalia,SOM,SOM,9.93972078,50.49488366,8.951971747,NA,Somalian Glory,NA,NA,mappingpiracy
03-03-1993,NA,120.4667,25.4333333,NA,Taiwan Sea,CHN,CHN,61.08917382,119.8745223,25.55678946,NA,Mv Tulsidas,NA,NA,mappingpiracy
05-03-1993,NA,120.0667,17.6,NA,Hong Kong - Luzon - Hainan,PHL,PHL,28.76509067,120.3338322,17.55638255,NA,Mv Zirje,NA,NA,mappingpiracy
06-03-1993,NA,98.7167,3.8,NA,Straits of Malacca-Indonesia,IDN,IDN,0.793892444,98.71062259,3.803778387,NA,Mv Kavo Sidero,NA,NA,mappingpiracy
19-03-1993,NA,122.7667,37.2833333,NA,East China Sea,CHN,CHN,12.77479324,122.6789657,37.37466055,NA,Mv Sibirskiy 2114,NA,NA,mappingpiracy
21-03-1993,NA,115.25,19.67,NA,SW of Hong Kong. Hong Kong - Luzon - Hainan,CHN,TWN,280.8118709,114.3025008,22.04486726,NA,M69204Y,NA,NA,mappingpiracy
21-03-1993,NA,109.5,15,NA,South China Sea,VNM,VNM,54.13836499,109.0808212,14.72947826,NA,Mt Suci,NA,NA,mappingpiracy
23-03-1993,NA,105.85,3.8166667,NA,South China Sea,IDN,IDN,68.73987072,106.2708439,3.360988674,NA,Mv Kurama,NA,NA,mappingpiracy
23-03-1993,NA,124.3333,26.75,NA,East China Sea,NA,NA,97.18674873,124.5668238,25.89842357,NA,Mv Vsip Pyatnitskiy,NA,NA,mappingpiracy
24-03-1993,NA,-43.1667,-22.8933333,NA,"Anchorage, Rio de Janeiro, Brazil",BRA,BRA,0.539139852,-43.16209876,-22.8956845,NA,Mv Santos Express,NA,Anchored,mappingpiracy
02-04-1993,NA,121.7766,38.7931,NA,30 miles East of Waglan. Hong Kong - Luzon - Hainan,CHN,CHN,10.42762457,121.6962997,38.8629418,NA,Mv Bunga Terasek,NA,NA,mappingpiracy
04-04-1993,NA,123.8,22.7333333,NA,Hong Kong - Luzon - Hainan,JPN,JPN,168.8271381,123.8512476,24.25698477,NA,Mv Pernas Proton,NA,NA,mappingpiracy
04-04-1993,NA,115.6667,22.3333333,NA,Hong Kong - Luzon - Hainan,CHN,CHN,38.27281173,115.5752189,22.66833597,NA,Mv Birlad,NA,NA,mappingpiracy
08-04-1993,NA,111.4167,12.5166667,NA,South China Sea,VNM,VNM,211.8323817,109.4724227,12.65639883,NA,Mv NL Trader,NA,NA,mappingpiracy
13-04-1993,NA,115.25,19.67,NA,Hong Kong Harbour. Hong Kong - Luzon - Hainan,CHN,TWN,280.8118709,114.3025008,22.04486726,NA,MV Baltimar Neptune,NA,NA,mappingpiracy
17-04-1993,NA,115.6167,17.6333333,NA,Hong Kong - Luzon - Hainan,CHN,TWN,324.7929248,112.736827,16.6602237,NA,MV Sun Kung No. 8,NA,NA,mappingpiracy
22-04-1993,NA,117.35,20.3,NA,Hong Kong - Luzon - Hainan,CHN,TWN,305.362037,116.4946879,22.93935241,NA,MV OOCL Beacon,NA,NA,mappingpiracy
22-04-1993,NA,98.6767,3.7766667,NA,Belawan Port. Straits of Malacca-Indonesia,IDN,IDN,4.815190419,98.71062259,3.803778387,NA,Mv Magic Lady,NA,NA,mappingpiracy
22-04-1993,NA,116.0833,19.4,NA,Hong Kong - Luzon - Hainan,CHN,TWN,346.6162688,114.3025008,22.04486726,NA,MV Salud Ace,NA,NA,mappingpiracy
23-04-1993,NA,116.7833,21.1666667,NA,Hong Kong - Luzon - Hainan,CHN,TWN,196.9697334,116.0956899,22.82590046,NA,Bukhta,NA,NA,mappingpiracy
23-04-1993,NA,117.5,20.8,NA,Hong Kong - Luzon - Hainan,CHN,TWN,258.6698845,116.4946879,22.93935241,NA,Mv Old Sea Beacon,NA,NA,mappingpiracy
29-04-1993,NA,126.0333,28.85,NA,East China Sea,JPN,JPN,241.2175085,128.2298283,27.86896393,NA,MT President,NA,NA,mappingpiracy
29-04-1993,NA,114.1833,17.926,NA,300 miles South of Hong Kong. Hong Kong - Luzon - Hainan,CHN,CHN,207.8542609,112.7334091,16.66608308,NA,Mv Zhongshan,NA,NA,mappingpiracy
02-05-1993,NA,124.95,35.2333333,NA,East China Sea,KOR,KOR,73.42519403,125.4212346,34.69708893,NA,Mv Konstantin,NA,NA,mappingpiracy
03-05-1993,NA,120.05,17.3,NA,South China Sea,PHL,PHL,38.16391116,120.4082137,17.32269929,NA,NA,NA,NA,mappingpiracy
04-05-1993,NA,115.984,19.3123,NA,235 miles SE of Hong Kong. Hong Kong - Luzon - Hainan,CHN,TWN,349.5862663,114.3025008,22.04486726,NA,Mv Tricolor Star III,NA,NA,mappingpiracy
04-05-1993,NA,123.85,35.7833333,NA,East China Sea,CHN,KOR,172.4863261,122.5173446,36.90314362,NA,Mv Komsomlskaya Smena,NA,NA,mappingpiracy
17-05-1993,NA,3.3767,6.45,NA,"16 miles South of Lagos, Nigeria",NGA,NGA,0.745848921,3.37387129,6.456122137,NA,Mt Petrobulk Panther,NA,NA,mappingpiracy
19-05-1993,NA,106,-5.95,NA,"Alongside Prointal Jetty, Indonesia",IDN,IDN,3.580700836,105.9972437,-5.91773854,NA,Maersk Sussex,NA,NA,mappingpiracy
24-05-1993,NA,100.1667,3.5,NA,Straits of Malacca-Indonesia,IDN,IDN,58.18179192,99.75074304,3.180487372,NA,Mv Star Lily,NA,NA,mappingpiracy
25-05-1993,NA,108.7167,-5.7833333,NA,Java Sea,IDN,IDN,64.64907938,108.3602691,-6.246400945,NA,Mt Timur Mercury,NA,NA,mappingpiracy
25-05-1993,NA,108.4,6.9833333,NA,South China Sea,IDN,VNM,248.3809,108.0051376,4.772365627,NA,Mv Pina,NA,NA,mappingpiracy
02-06-1993,NA,122.1833,37.4333333,NA,Port of Weihaiwei. East China Sea,CHN,CHN,1.284733749,122.1977645,37.43235912,NA,Mv Sibirskiy-2114,NA,NA,mappingpiracy
03-06-1993,NA,101.45,1.6766667,NA,Dumai Port. Straits of Malacca-Indonesia,IDN,IDN,4.422683577,101.4270126,1.709295966,NA,Mt Timur Endurance,NA,NA,mappingpiracy
09-06-1993,NA,101.9,2.25,NA,Straits of Malacca-Malaysia,MYS,MYS,16.44109515,101.865245,2.39451732,NA,Mt Royal Arrow,NA,NA,mappingpiracy
09-06-1993,NA,124.6667,27.6166667,NA,East China Sea,NA,NA,190.6399253,124.5668238,25.89842357,NA,Mv Soyuz 4,NA,NA,mappingpiracy
11-06-1993,NA,124.1667,22.75,NA,East China Sea,JPN,JPN,169.7109435,123.8730575,24.25824616,NA,Mt Dooyang Amber,NA,NA,mappingpiracy
11-06-1993,NA,123.5667,37.7,NA,East China Sea,CHN,CHN,84.03706164,122.688243,37.4098168,NA,Mv Kap. Modest Ivanov,NA,NA,mappingpiracy
12-06-1993,NA,79.8432,6.95,NA,"Colombo Outer Road, Sri Lanka",LKA,LKA,1.450377734,79.84815514,6.962144273,NA,Mv Tiger Stream,NA,NA,mappingpiracy
13-06-1993,NA,123.3167,36.8166667,NA,East China Sea,CHN,CHN,70.9440071,122.5327255,36.92593008,NA,Gorets,NA,NA,mappingpiracy
15-06-1993,NA,122.9286,29.0791,NA,150NM SE of Shanghai. East China Sea,CHN,CHN,93.28014704,121.9914657,29.25731029,NA,Mv Kovdor,NA,NA,mappingpiracy
16-06-1993,NA,125.1539,29.2179,NA,East China Sea,CHN,CHN,275.9887222,122.3951929,29.8333194,NA,Mv Tokarevsk,NA,NA,mappingpiracy
17-06-1993,NA,127.5,29.7833333,NA,East China Sea,JPN,KOR,196.3917211,129.5276799,29.90232982,NA,Mv Elm,NA,NA,mappingpiracy
21-06-1993,NA,3.3667,6.2833333,NA,Nigeria,NGA,NGA,12.76660309,3.326182488,6.391424872,NA,Mt Dan Frigg,NA,NA,mappingpiracy
24-06-1993,NA,111.2333,20.4166667,NA,Hong Kong - Luzon - Hainan,CHN,CHN,55.44484006,110.9206649,20.01203034,NA,Mv Kapitan Betkher,NA,NA,mappingpiracy
25-06-1993,NA,-77.0667,3.8766667,NA,"Inner Anchorage, Buenaventura, Colombia",COL,COL,1.008899726,-77.0685929,3.867743231,NA,Mv Crion,NA,NA,mappingpiracy
25-06-1993,NA,128.6167,35.0666667,NA,East China Sea,KOR,KOR,0.754746603,128.6247665,35.06818268,NA,Gorets,NA,NA,mappingpiracy
26-06-1993,NA,110.5833,20.9666667,NA,China,CHN,CHN,1.040183208,110.5896102,20.95937735,NA,Mv Pavel Rybin,NA,NA,mappingpiracy
26-06-1993,NA,106.5,5.25,NA,South China Sea,IDN,IDN,170.4340586,107.9367782,4.70307038,NA,Mv Far Trader,NA,NA,mappingpiracy
26-06-1993,NA,116.25,20.7666667,NA,Hong Kong - Luzon - Hainan,CHN,TWN,221.8364662,115.5752189,22.66833597,NA,Mv Kap. Leo. Borisenko,NA,NA,mappingpiracy
06-07-1993,NA,115.7,20.0333333,NA,Hong Kong - Luzon - Hainan,CHN,TWN,265.8912454,114.3025008,22.04486726,NA,Mv Khudozhnik,NA,NA,mappingpiracy
07-07-1993,NA,99.4333,4.1833333,NA,Straits of Malacca-Indonesia,IDN,IDN,75.01162277,99.07391005,3.608994286,NA,Mv Faarabi,NA,NA,mappingpiracy
07-07-1993,NA,124.1333,35.3166667,NA,East China Sea,KOR,KOR,135.7884717,125.4056096,34.68256257,NA,Mv Valeriy Volkov,NA,NA,mappingpiracy
08-07-1993,NA,124.1667,35.3333333,NA,East China Sea,KOR,KOR,134.1623893,125.4128524,34.69196198,NA,Mv Evgenity Zuluz,NA,NA,mappingpiracy
14-07-1993,NA,115.2167,22.3,NA,Hong Kong - Luzon - Hainan,CHN,CHN,42.12889507,114.9191185,22.56115516,NA,Mv Ivan Skuridin,NA,NA,mappingpiracy
15-07-1993,NA,115.15,22.4,NA,Hong Kong - Luzon - Hainan,CHN,CHN,29.71560231,114.9191185,22.56115516,NA,Mv Ko Mal San,NA,NA,mappingpiracy
13-08-1993,NA,115.1,22.1333333,NA,Hong Kong - Luzon - Hainan,CHN,CHN,50.45197051,114.8959664,22.5475244,NA,Mv Hermes Hope,NA,NA,mappingpiracy
20-08-1993,NA,112.7467,-7.1885,NA,"Berlian barat, Surabaya, Indonesia",IDN,IDN,1.852101831,112.7451278,-7.205173435,NA,Mt Kitsa,NA,NA,mappingpiracy
28-08-1993,NA,115.4533,19.5783333,NA,Hong Kong - Luzon - Hainan,CHN,TWN,298.1979649,114.3025008,22.04486726,NA,Mv A.J. 1,NA,NA,mappingpiracy
02-09-1993,NA,98.6767,3.7766667,NA,"Berth 105, Belawan Port, Indonesia",IDN,IDN,4.815190419,98.71062259,3.803778387,NA,Mv Gold Future,NA,NA,mappingpiracy
09-09-1993,NA,13.965,-5.915,NA,Angola,COD,AGO,86.69204428,13.18433679,-5.856215102,NA,Mv Tilly,NA,NA,mappingpiracy
11-09-1993,NA,105,1,NA,Indonesia,IDN,IDN,16.53721606,104.8523055,0.983710028,NA,Mv Kota Intan,NA,NA,mappingpiracy
21-09-1993,NA,120.1667,17.7166667,NA,Hong Kong - Luzon - Hainan,PHL,PHL,20.23933908,120.3532007,17.67812735,NA,Mv Inger Riis,NA,NA,mappingpiracy
27-09-1993,NA,98.6767,3.7766667,NA,"Berth 108-109, Belawan Port, Indonesia",IDN,IDN,4.815190419,98.71062259,3.803778387,NA,Mv Macknight,NA,NA,mappingpiracy
29-09-1993,NA,-46.33,-24.1483333,NA,"Outer Road, Santos, Brazil",BRA,BRA,14.29787153,-46.38630124,-24.03004323,NA,Mv Sao Paulo,NA,NA,mappingpiracy
08-10-1993,NA,-46.33,-24.1483333,NA,"Outer Road, Santos, Brazil",BRA,BRA,14.29787153,-46.38630124,-24.03004323,NA,Mv Betelgeuse,NA,NA,mappingpiracy
17-10-1993,NA,120.2867,18.28,NA,Hong Kong - Luzon - Hainan,PHL,PHL,25.42184835,120.518077,18.21771882,NA,Mt BP Admiral,NA,NA,mappingpiracy
19-10-1993,NA,115.8667,-9.1666667,NA,Indonesia,IDN,IDN,32.97812517,116.0095321,-8.904473566,NA,Gullhaar,NA,NA,mappingpiracy
22-10-1993,NA,106.6667,8.2833333,NA,Kampuchea,VNM,VNM,41.48872685,106.5992945,8.6524112,NA,Mv Nordsino,NA,NA,mappingpiracy
26-10-1993,NA,-58.17,6.8216667,NA,"Georgetown, Guyana",GUY,GUY,0.636843673,-58.16567949,6.817857164,NA,Mv Cottica,NA,NA,mappingpiracy
28-10-1993,NA,98.5833,-4.7333333,NA,Indonesia,IDN,IDN,256.5771124,100.3369247,-3.2225888,NA,Mv Impala,NA,NA,mappingpiracy
02-11-1993,NA,90.8333,22.0833,NA,"Off Brul Reach, Gange River, India",BGD,BGD,6.0976986,90.7747502,22.0759138,NA,LPG/C Polar Endurance,NA,NA,mappingpiracy
05-11-1993,NA,118.3667,19.8666667,NA,Hong Kong - Luzon - Hainan,PHL,TWN,276.6421382,120.5701604,18.50177643,NA,Mv Kayax,NA,NA,mappingpiracy
12-11-1993,NA,79.6487,6.9499,NA,"12NM off Colombo Port, Sri Lanka",LKA,LKA,22.08245376,79.84815514,6.962144273,NA,Mv Lanka Asitha,NA,NA,mappingpiracy
04-12-1993,NA,120.1833,17.95,NA,Hong Kong - Luzon - Hainan,PHL,PHL,26.17542983,120.4253036,17.9024112,NA,Mv Alam Teladan,NA,NA,mappingpiracy
06-12-1993,NA,89.3333,1.8333333,NA,Indian Ocean,IDN,NA,715.2368129,95.69263757,2.792059637,NA,Mv Usguaua,NA,NA,mappingpiracy
09-12-1993,NA,98.6767,3.7766667,NA,"Belawan Port, Indonesia",IDN,IDN,4.815190419,98.71062259,3.803778387,NA,Mv Sea Laurel,NA,NA,mappingpiracy
02-01-1994,NA,116.1,22.0166667,Attempted,South China Sea,CHN,CHN,85.61923805,115.8259561,22.74664352,NA,Francesia,NA,NA,mappingpiracy
05-01-1994,NA,112.0333,13.6333333,Hijacked,South China Sea,VNM,VNM,253.5601658,111.1965438,15.7753767,NA,Jui Ho,NA,NA,mappingpiracy
09-01-1994,NA,103.4,1.1833333,Attempted,STM-INDO,IDN,IDN,5.975183863,103.3898218,1.130275783,NA,Joyama Maru,NA,NA,mappingpiracy
09-01-1994,NA,103.4833,1.3,Boarded,Indonesia,MYS,MYS,2.5660371,103.5040796,1.289943752,NA,Gyoko Maru,NA,NA,mappingpiracy
09-01-1994,NA,103.45,1.1666667,Boarded,STM-INDO,IDN,IDN,7.813492156,103.3898218,1.130275783,NA,Hellespont P,NA,NA,mappingpiracy
10-01-1994,NA,118.1167,18.5666667,Boarded,HLH Area,PHL,PHL,254.2741924,120.4700627,18.09100983,NA,Peder Most,NA,NA,mappingpiracy
11-01-1994,NA,91.8267,22.2383333,Attempted,"Chittagong B, Bangladesh",BGD,BGD,0.8313377,91.83472741,22.23761628,NA,Moon Bird,NA,NA,mappingpiracy
12-01-1994,NA,104.0833,1.2333333,Boarded,Singapore Straits,IDN,IDN,5.098464691,104.0905868,1.187811591,NA,Bophuthatbwana,NA,NA,mappingpiracy
16-01-1994,NA,123.9,28.5666667,Boarded,East China Sea,CHN,CHN,198.5581073,121.9583439,29.10187409,NA,Lucie Schulte,NA,NA,mappingpiracy
16-01-1994,NA,107.0833,10.3,Boarded,Vietnam,VNM,VNM,2.599546049,107.0871688,10.32318757,NA,Diyyinah,NA,NA,mappingpiracy
22-01-1994,NA,32.55,29.8166667,Boarded,"No.8 Suez Canal, Egypt",EGY,EGY,5.333366015,32.6045028,29.82416413,NA,Landka Asitha,NA,NA,mappingpiracy
25-01-1994,NA,103.3167,1.25,Boarded,STM-INDO,IDN,IDN,14.25915349,103.3664657,1.131170966,NA,Aries Has,NA,NA,mappingpiracy
25-01-1994,NA,119.9667,17.6833333,Boarded,HLH Area,PHL,PHL,41.00942032,120.3532007,17.67812735,NA,Hans Oldendorff,NA,NA,mappingpiracy
26-01-1994,NA,-76.7533,17.7366667,NA,"Off Kingston, Jamaica, Carribean",JAM,JAM,21.2955163,-76.61314857,17.87449779,NA,Victoria Faith,NA,NA,mappingpiracy
27-01-1994,NA,122.9286,29.0791,NA,East China Sea,CHN,CHN,93.28014704,121.9914657,29.25731029,NA,Nanshin Maru,NA,NA,mappingpiracy
27-01-1994,NA,121.4,20,Hijacked,HLH Area,PHL,PHL,56.02019796,121.8508407,20.27342357,NA,Alicia Star,NA,NA,mappingpiracy
30-01-1994,NA,110.7667,14.9,Boarded,HLH Area,VNM,VNM,107.257783,111.1941024,15.77610912,NA,Kota Mulia,NA,NA,mappingpiracy
10-02-1994,NA,43.1667,11.6666667,Hijacked,Somalia,DJI,DJI,6.285266935,43.15186608,11.61176179,NA,MV Castor,NA,NA,mappingpiracy
16-02-1994,NA,112.0333,13.6333333,NA,HLH Area,VNM,VNM,253.5601658,111.1965438,15.7753767,NA,Vlaherna,NA,NA,mappingpiracy
16-02-1994,NA,121.5933,15.0133333,Boarded,"Manila Port, Philippines",PHL,PHL,4.431694785,121.5600692,14.98965078,NA,Nord Light,NA,NA,mappingpiracy
21-02-1994,NA,112.9,12.2833333,Attempted,South China Sea,CHN,CHN,202.7920642,114.2722274,11.04584382,NA,Rita Del Mar,NA,NA,mappingpiracy
27-02-1994,NA,121.6433,22.9833333,Boarded,HLH Area,TWN,TWN,30.3015704,121.3816024,23.11066315,NA,Keumgang Glory,NA,NA,mappingpiracy
08-03-1994,NA,116.95,-1.3666667,Boarded,Indonesia,IDN,IDN,14.04081611,116.9576929,-1.239922784,NA,Timur Endurance,NA,NA,mappingpiracy
12-03-1994,NA,106.3333,8.4666667,Attempted,Kampuchea,VNM,VNM,34.1164283,106.5783798,8.655462958,NA,Santa Esmeralda,NA,NA,mappingpiracy
14-03-1994,NA,-17.4247,14.676,Boarded,"Dakar Roads, Senegal",SEN,SEN,0.261033934,-17.42682858,14.67487214,NA,Peder Most,NA,NA,mappingpiracy
15-03-1994,NA,79.7583,6.945,Boarded,Sri Lanka,LKA,LKA,10.10893705,79.84815514,6.962144273,NA,California Zeus,NA,NA,mappingpiracy
20-03-1994,NA,114.1945,22.555,Hijacked,"TCS No.2 Buoy, Hong Kong (Coded as Hong Kong Port)",CHN,CHN,2.7731864,114.2099716,22.53449128,NA,Tequila,NA,NA,mappingpiracy
25-03-1994,NA,116.1167,22.6166667,Attempted,East China Sea,CHN,CHN,23.2708876,116.0956899,22.82590046,NA,Khudozhnik N. Rer,NA,NA,mappingpiracy
26-03-1994,NA,121.6433,25.9833333,Attempted,East China Sea,TWN,TWN,77.79337613,121.5397242,25.28742097,NA,Nordsung,NA,NA,mappingpiracy
26-03-1994,NA,114.2667,22.1166667,Boarded,East China Sea,CHN,CHN,6.397482952,114.2985946,22.06712474,NA,Shun Ping,NA,NA,mappingpiracy
19-04-1994,NA,110.4717,13.3883333,Boarded,South China Sea,VNM,VNM,121.1358888,109.4650171,12.91331615,NA,Kota Indah,NA,NA,mappingpiracy
23-04-1994,NA,121.22,19.6041667,Attempted,Philippines,PHL,PHL,28.75848418,121.3508407,19.37592194,NA,Forum Wind,NA,NA,mappingpiracy
25-04-1994,NA,106.9025,-6.0976667,Boarded,"Tanjung Priok Roads, Indonesia",IDN,IDN,7.190381219,106.8377385,-6.102715753,NA,Ikan Beliak,NA,NA,mappingpiracy
03-05-1994,NA,107.3,18.75,Hijacked,Gulf of Tonkin,VNM,CHN,114.7249447,106.4348251,18.12352123,NA,M63807A,NA,NA,mappingpiracy
08-05-1994,NA,98.7007,3.7836667,Boarded,"Belawan Roads, Indonesia",IDN,IDN,2.482068608,98.71062259,3.803778387,NA,Bangkok Navee,NA,NA,mappingpiracy
16-05-1994,NA,-48.4877,-24.637,Boarded,"Santos Roads, Brazil",BRA,BRA,62.48681319,-48.05158444,-25.03679778,NA,Alaska,NA,NA,mappingpiracy
17-05-1994,NA,98.7007,3.7836667,Boarded,"Outer Anchorage, Dar Es Salaam, Tanzania",IDN,IDN,2.482068608,98.71062259,3.803778387,NA,Finnwood,NA,NA,mappingpiracy
22-05-1994,NA,119.95,17.6,Attempted,HLH Area,PHL,PHL,41.03025732,120.3338322,17.55638255,NA,Timber Trader XII,NA,NA,mappingpiracy
24-05-1994,NA,98.7007,3.7836667,Boarded,"Belawan, Indonesia",IDN,IDN,2.482068608,98.71062259,3.803778387,NA,Nordstar,NA,NA,mappingpiracy
30-05-1994,NA,-46.305,-24.637,Boarded,"Santos Roads, Brazil",BRA,BRA,67.33122822,-46.59341387,-24.08953216,NA,Cap Polonio,NA,NA,mappingpiracy
30-05-1994,NA,98.7007,3.7836667,Boarded,"Belawan Roads, Indonesia",IDN,IDN,2.482068608,98.71062259,3.803778387,NA,Ocean GR,NA,NA,mappingpiracy
30-05-1994,NA,117.5667,0.0833333,Boarded,Indonesia,IDN,IDN,8.356471608,117.5172632,0.140204169,NA,Pacific Gas,NA,NA,mappingpiracy
04-06-1994,NA,122.1667,6.1333333,Attempted,Philippines,PHL,PHL,26.84000267,121.9404403,6.046087958,NA,Wold Quince,NA,NA,mappingpiracy
07-06-1994,NA,104.6,1.6666667,NA,Malaysia,MYS,MYS,38.49789725,104.2552189,1.637762762,NA,vviva,NA,NA,mappingpiracy
09-06-1994,NA,-48.4877,-24.637,Boarded,"Alemoa Terminal, Santos, Brazil",BRA,BRA,62.48681319,-48.05158444,-25.03679778,NA,San Giovanni,NA,NA,mappingpiracy
13-06-1994,NA,118.0555,5.815,Boarded,"No.2 Jetty, Sandakan, Malaysia",MYS,MYS,0.761401104,118.0588485,5.808986721,NA,Asian Venture,NA,NA,mappingpiracy
15-06-1994,NA,117.1383,-0.5401667,Boarded,"Samarinda Anchorage, Indonesia",IDN,IDN,33.74762115,117.2815048,-0.809177342,NA,Toyo,NA,NA,mappingpiracy
19-06-1994,NA,112.7235,-7.2038333,Boarded,"Wharf 108, Surabaya, Indonesia",IDN,IDN,1.955988514,112.7295028,-7.220472915,NA,Bass Reefer,NA,NA,mappingpiracy
01-07-1994,NA,117.6167,0.0333333,Boarded,Indonesia (Documented coordinates 2:00.0N/117:37.0E locates in a forested area. Recoded due N to 2:00.54N in the waterway nearby),IDN,IDN,10.9064988,117.5234481,0.003078518,NA,Bonny,NA,NA,mappingpiracy
16-07-1994,NA,114.1945,22.555,Attempted,"South Lamma DG, Hong Kong",CHN,CHN,2.7731864,114.2099716,22.53449128,NA,Ervilia,NA,NA,mappingpiracy
17-07-1994,NA,119.05,21.25,Attempted,South China Sea,TWN,TWN,187.576441,120.7003687,21.94843171,NA,Rheingas,NA,NA,mappingpiracy
18-07-1994,NA,-43.1913,-22.8765,Boarded,"Inner Roads, Rio de Janeiro, Brazil",BRA,BRA,2.178646678,-43.17332923,-22.88697682,NA,Mister Michael,NA,NA,mappingpiracy
19-07-1994,NA,115.8667,20.1333333,Attempted,HLH Area,CHN,TWN,266.8439144,114.3025008,22.04486726,NA,New Hailee,NA,NA,mappingpiracy
26-07-1994,NA,123.1867,29.63,Attempted,East China Sea,CHN,CHN,79.82176086,122.3951929,29.8333194,NA,Kropotkin,NA,NA,mappingpiracy
26-07-1994,NA,118.0833,5.8,Boarded,"Sandakan Anchorage, Malaysia",MYS,MYS,1.718180666,118.0810653,5.815375067,NA,Gloria Ace,NA,NA,mappingpiracy
02-08-1994,NA,121.5933,15.0133333,Boarded,"Outer Road, Manila, Philippines",PHL,PHL,4.431694785,121.5600692,14.98965078,NA,Gorno Altaysk,NA,NA,mappingpiracy
14-08-1994,NA,-40.335,-20.3206667,Boarded,"Victoria Roads, Brazil",BRA,BRA,1.243161264,-40.32394785,-20.32483816,NA,Alexandergracht,NA,NA,mappingpiracy
16-08-1994,NA,-46.3093,-24.0703333,Boarded,"Santos Roads, 2nm S of Pt. Ross, Brazil (Measured 5km S of port)",BRA,BRA,5.872718951,-46.28766842,-24.02117278,NA,Maersk La Plata,NA,NA,mappingpiracy
19-08-1994,NA,120.9428,14.5211667,Boarded,"Manila Bay, Philippines",PHL,PHL,3.658996985,120.9703882,14.50189851,NA,Fukumaru,NA,NA,mappingpiracy
21-08-1994,NA,91.806,22.223,Boarded,"Karnaphuli River, Bangladesh",BGD,BGD,1.163908905,91.81690514,22.22028229,NA,MV Young II,NA,NA,mappingpiracy
24-08-1994,NA,105.9333,-6.0166667,Boarded,Indonesia,IDN,IDN,3.294167977,105.9570419,-5.998711847,NA,Caroline Oldendorff,NA,NA,mappingpiracy
26-08-1994,NA,105.9535,-6.0081667,Boarded,"Cigading Port, Indonesia",IDN,IDN,1.1166917,105.9570419,-5.998711847,NA,Torben Spirit,NA,NA,mappingpiracy
31-08-1994,NA,104.679,1.5505,Boarded,"Horsburg Lighthouse, Singapore Straits",IDN,MYS,37.74056299,104.5756942,1.225409247,NA,Essberger Pioneer,NA,NA,mappingpiracy
31-08-1994,NA,104.679,1.5505,Boarded,"Horsburg Lighthouse, Singapore Straits",IDN,MYS,37.74056299,104.5756942,1.225409247,NA,C. Tahsin,NA,NA,mappingpiracy
09-09-1994,NA,113.4667,18.3666667,Attempted,HLH Area,CHN,CHN,198.942011,112.3370874,16.9320336,NA,Lyki,NA,NA,mappingpiracy
12-09-1994,NA,106.8833,20.64,Boarded,"Haiphong Roads, Vietnam",VNM,VNM,9.072476433,106.8059188,20.67755768,NA,Mekong Spring,NA,NA,mappingpiracy
17-09-1994,NA,114.1558,22.3193333,Boarded,"SW Lamma Anchorage, Hong Kong",CHN,CHN,0.500998564,114.1595158,22.3222517,NA,Maritime Omi,NA,NA,mappingpiracy
27-09-1994,NA,119.0833,19.1333333,Attempted,HLH Area,PHL,PHL,171.4002877,120.5608016,18.48676179,NA,Chitra,NA,NA,mappingpiracy
03-10-1994,NA,113.45,11.6166667,Attempted,South China Sea,CHN,CHN,109.7420854,114.2722274,11.04584382,NA,NA,NA,NA,mappingpiracy
10-10-1994,NA,-4,5.2931667,Boarded,"Abidjan Roads, Ivory Coast",CIV,CIV,1.268660948,-3.999623176,5.30463288,NA,Nordic Bulker,NA,NA,mappingpiracy
16-10-1994,NA,155.9033,-6.2583333,Attempted,"Bougainville Province, Papau New Guinea",PNG,PNG,15.42236189,155.8133244,-6.364841404,NA,Club Med II,NA,NA,mappingpiracy
20-10-1994,NA,-80.0867,-2.52,Boarded,"Guayaquil Port, Ecuador",ECU,ECU,4.446084967,-80.05553138,-2.545179946,NA,Sea Wind,NA,NA,mappingpiracy
21-10-1994,NA,112.7235,-7.2038333,Boarded,"Container Pier, Surabaya, Indonesia",IDN,IDN,1.955988514,112.7295028,-7.220472915,NA,Estebrugge,NA,NA,mappingpiracy
25-10-1994,NA,114.1217,22.16,Boarded,Hong Kong Anchorage,CHN,CHN,2.196548724,114.1108505,22.1770694,NA,United Ambition,NA,NA,mappingpiracy
25-10-1994,NA,112.7235,-7.2038333,Boarded,"Inner Anchorage, Surabaya, Indonesia",IDN,IDN,1.955988514,112.7295028,-7.220472915,NA,Reestborg,NA,NA,mappingpiracy
27-10-1994,NA,107.3,-3,Boarded,Indonesia,IDN,IDN,12.89001061,107.3984536,-2.938427948,NA,Windward,NA,NA,mappingpiracy
03-11-1994,NA,106.8867,-6.0338333,Boarded,"Jakarta Roads, Indonesia",IDN,IDN,9.348946503,106.8377385,-6.102715753,NA,Melgar,NA,NA,mappingpiracy
04-11-1994,NA,-80.0867,-2.52,Boarded,"Guayaquil Port, Ecuador",ECU,ECU,4.446084967,-80.05553138,-2.545179946,NA,Sea Wave,NA,NA,mappingpiracy
14-11-1994,NA,107.2917,-3.025,Boarded,Indonesia,IDN,IDN,15.24744201,107.3984536,-2.938427948,NA,Dove Arrow,NA,NA,mappingpiracy
15-11-1994,NA,104.5833,1.4,Boarded,Indonesia,IDN,IDN,19.3238956,104.5756942,1.225409247,NA,Yaya,NA,NA,mappingpiracy
21-11-1994,NA,106.8833,-5.9731667,Attempted,"3.7nm from Breakwater, Jakarta, Indonesia",IDN,IDN,13.24579241,106.9990341,-6.003513279,NA,Fortunate Star,NA,NA,mappingpiracy
22-11-1994,NA,107.3,-2.8666667,Boarded,Indonesia,IDN,IDN,5.105025692,107.3412922,-2.886858451,NA,Essverger Pioneer,NA,NA,mappingpiracy
23-11-1994,NA,107.2833,-2.9333333,Boarded,Indonesia,IDN,IDN,8.24492587,107.3412922,-2.886858451,NA,Continental Spirit,NA,NA,mappingpiracy
26-11-1994,NA,119.7267,16.5533333,Attempted,HLH Area,PHL,PHL,22.51419079,119.8125106,16.36749909,NA,Audacious,NA,NA,mappingpiracy
26-11-1994,NA,-79.9983,-2.3567,Boarded,"Gye Inner Roads, Ecuador (GYE is for Guayaquil)",ECU,ECU,0.354074205,-79.99990801,-2.353936456,NA,Caria,NA,NA,mappingpiracy
27-11-1994,NA,125.2833,33.7,Attempted,Yellow Sea,KOR,KOR,40.8694705,125.134288,34.04686107,NA,Sea Bird,NA,NA,mappingpiracy
27-11-1994,NA,-46.3517,-24.0133333,Boarded,"Santos Roads, Brazil",BRA,BRA,2.089366547,-46.3720597,-24.01580169,NA,Ocean Competence,NA,NA,mappingpiracy
30-11-1994,NA,53.8958,29.8115,Hijacked,Iranian Territorial Waters,IRN,IRN,279.2807953,52.45964603,27.63263581,NA,Dunay,NA,Steaming,mappingpiracy
30-11-1994,NA,53.8958,29.8115,Hijacked,Iranian Territorial Waters,IRN,IRN,279.2807953,52.45964603,27.63263581,NA,Ellam,NA,Steaming,mappingpiracy
30-11-1994,NA,90.0183,21.9721,Hijacked,"In the vicinity of Barguana, Bangladesh",BGD,BGD,2.044335111,90.02816817,21.98810456,NA,Allya,NA,Steaming,mappingpiracy
30-11-1994,NA,53.8958,29.8115,Hijacked,Iranian Territorial Waters,IRN,IRN,279.2807953,52.45964603,27.63263581,NA,Nilkamtha,NA,Steaming,mappingpiracy
30-11-1994,NA,53.8958,29.8115,Hijacked,Iranian Territorial Waters,IRN,IRN,279.2807953,52.45964603,27.63263581,NA,Sree Vishnu,NA,Steaming,mappingpiracy
06-12-1994,NA,107.2667,-2.8666667,Boarded,Indonesia,IDN,IDN,8.588474176,107.3412922,-2.886858451,NA,Eagle Tide,NA,NA,mappingpiracy
09-12-1994,NA,118.115,5.8233333,Boarded,Malaysia,MYS,MYS,2.110891726,118.0959579,5.82416413,NA,Nanyo,NA,NA,mappingpiracy
28-12-1994,NA,106.8867,-6.0338333,Boarded,"Jakarta Anchorage, Indonesia",IDN,IDN,9.348946503,106.8377385,-6.102715753,NA,Anro Australia,NA,NA,mappingpiracy
05-01-1995,NA,112.6867,-7.1766667,Boarding,"Inner Anchorage Surabaya Port, Indonesia",IDN,IDN,0.37063782,112.6838485,-7.174899998,NA,Bunga Kerayong,NA,NA,mappingpiracy
07-01-1995,NA,122.185,37.4386667,Boarding,"Subic freeport, Manila, Philippines",CHN,CHN,1.329001911,122.1977645,37.43235912,NA,Kafu Maru,NA,NA,mappingpiracy
08-01-1995,NA,98.6767,3.7766667,Boarding,"Belawan Port, Indonesia",IDN,IDN,4.815190419,98.71062259,3.803778387,NA,Troianu,NA,Anchored,mappingpiracy
10-01-1995,NA,131.8833,43.11666667,Boarding,"Near Vladivostok, GOS",RUS,RUS,2.324696496,131.8794051,43.13739655,NA,Alaksey Chuyer,NA,NA,mappingpiracy
18-01-1995,NA,98.7983,3.98,Boarding,"Belawan Anchorage, Indonesia",IDN,IDN,15.32967371,98.6766198,3.914546933,NA,Captain George II,NA,Anchored,mappingpiracy
21-01-1995,NA,120.0867,18.425,Attempted,HLH Area (Hong Kong - Luzon - Hainan),PHL,PHL,50.42774059,120.5617782,18.46967194,NA,Ocean Glory,NA,Steaming,mappingpiracy
23-01-1995,NA,118.105,5.8133333,Boarding,"Sandankan Anchorage Sabah, Malaysia",MYS,MYS,1.561216093,118.0959579,5.82416413,NA,Norbulk Pine,NA,Anchored,mappingpiracy
23-01-1995,NA,120.8167,16.6,Attempted,HLH Area (Hong Kong - Luzon - Hainan),PHL,PHL,53.81577141,120.3259383,16.71259186,NA,Golden Alpha,NA,Steaming,mappingpiracy
26-01-1995,NA,39.3533,-6.775,Boarding,"Dar Es Salam Anchorage, Africa",TZA,TZA,5.977859498,39.32650801,-6.821954034,NA,Pegasus,NA,Anchored,mappingpiracy
28-01-1995,NA,52.0142,26.8085,Hijacked,Persian Gulf,IRN,IRN,83.84692291,52.60132897,27.35293203,NA,Shaiboub,NA,NA,mappingpiracy
31-01-1995,NA,106.875,-6.0886667,Boarding,"Jakarta Anchorage, 3.5 M OFF Indonesia",IDN,IDN,4.407541808,106.8377385,-6.102715753,NA,Darya Chand,NA,Anchored,mappingpiracy
03-02-1995,NA,98.6767,3.7766667,Boarding,"Belawan Roads, Belawan Indonesia",IDN,IDN,4.815190419,98.71062259,3.803778387,NA,Kapetan Elias,NA,NA,mappingpiracy
04-02-1995,NA,116.7967,-1.2766667,Boarding,"Balik Papan Anchorage, Kalimantan, Indonesia",IDN,IDN,1.987233016,116.7790633,-1.273858331,NA,Bunga Kerayong,NA,Anchored,mappingpiracy
11-02-1995,NA,-43.1667,-22.8933333,Boarding,"Rio de Janeiro, Brazil",BRA,BRA,0.539139852,-43.16209876,-22.8956845,NA,Regina,NA,Anchored,mappingpiracy
15-02-1995,NA,108.5833,7.3,Boarding,South China Sea,VNM,VNM,262.8457714,106.6557723,8.698879299,NA,Lucky Trader No. 1,NA,Steaming,mappingpiracy
19-02-1995,NA,-80.3448,8.29,Boarding,"Off Panama Coast, Panama",PAN,PAN,1.186761877,-80.3342179,8.287990627,NA,NA,NA,NA,mappingpiracy
21-02-1995,NA,105.9467,-6.0083333,Boarding,"Anyer Inner Anchorage, Indonesia",IDN,IDN,1.563034483,105.9570419,-5.998711847,NA,LPG Norgas Traveller,NA,Anchored,mappingpiracy
23-02-1995,NA,117.4167,23.2,Attempted,Taiwan,CHN,CHN,36.80991688,117.1287813,23.39936918,NA,Hanjin Kunsan,NA,Steaming,mappingpiracy
26-02-1995,NA,-79.9167,9.35,Boarding,Cristobal,PAN,PAN,1.839919215,-79.90025794,9.346828518,NA,Shansi,NA,Berthed,mappingpiracy
28-02-1995,NA,43.6167,11.5833333,Attempted,"Djibouti, E. Africa",SOM,SOM,26.34617802,43.48943119,11.38092683,NA,Nourberg Mofarrij,NA,Steaming,mappingpiracy
28-02-1995,NA,52.0142,26.8085,Hijacked,Persian Gulf,IRN,IRN,83.84692291,52.60132897,27.35293203,NA,NA,NA,NA,mappingpiracy
28-02-1995,NA,52.0142,26.8085,Hijacked,Persian Gulf,IRN,IRN,83.84692291,52.60132897,27.35293203,NA,Capriolo,NA,NA,mappingpiracy
04-03-1995,NA,119.03,19.675,Attempted,Hong Kong - Luzon - Hainan Area,PHL,PHL,207.6882552,120.5701604,18.50177643,NA,ACX Iris,NA,Steaming,mappingpiracy
07-03-1995,NA,-43.1667,-22.8933333,Boarding,"No. 3 Berth, Rio de Janiero, Brazil",BRA,BRA,0.539139852,-43.16209876,-22.8956845,NA,San Miguel,NA,Anchored,mappingpiracy
07-03-1995,NA,114.2,22.2666667,Hijacked,"7 miles east of TCS1 Buoy, Hong Kong",CHN,CHN,2.477473174,114.2063908,22.28823477,NA,Xiamen Bridge,NA,Steaming,mappingpiracy
07-03-1995,NA,106.15,-6.0666667,Boarding,"Jakarta Port, Indonesia",IDN,IDN,6.399349131,106.1591903,-6.009535415,NA,Bunga Melor Satu,NA,Anchored,mappingpiracy
07-03-1995,NA,-43.2,-22.9,Boarding,"Alongside Rio de Janeiro, Brazil",BRA,BRA,3.093283939,-43.17332923,-22.88697682,NA,Marwan,NA,NA,mappingpiracy
08-03-1995,NA,117.85,21.7166667,Boarding,Hong Kong - Luzon - Hainan Area,CHN,TWN,194.4898552,116.4946879,22.93935241,NA,Ling Xian,NA,Steaming,mappingpiracy
15-03-1995,NA,3.4539,37.195,Boarding,Algeria Waters,DZA,DZA,42.3382843,3.709483269,36.87319571,NA,Biban,NA,NA,mappingpiracy
15-03-1995,NA,29.9667,41.0166667,Boarding,"Istanbul Port, Turkey",TUR,TUR,16.23387589,29.88461348,41.14899323,NA,Ayvazovskly,NA,Anchored,mappingpiracy
15-03-1995,NA,113.8571,21.8865,Hijacked,"Wanshan Quandeo, Pearl river estuary, China",CHN,CHN,13.06400514,113.7644768,21.96681793,NA,Wing Lee No. 3,NA,Steaming,mappingpiracy
23-03-1995,NA,117.2833,-1,Boarding,"Samarinda Anchorage, Kalimantan, Indonesia",IDN,IDN,9.92311808,117.235118,-0.924493097,NA,Navigatore - D,NA,Anchored,mappingpiracy
25-03-1995,NA,112.7,-7.1833333,Boarding,"Surabaya Roads, Inner Anchorage, Indonesia",IDN,IDN,2.013058366,112.6838485,-7.174899998,NA,Reestborg,NA,NA,mappingpiracy
01-04-1995,NA,112.0667,-7.1456667,Boarding,"Surabaya, Indonesia",IDN,IDN,26.3496598,112.1069442,-6.910821222,NA,Calatang,NA,Anchored,mappingpiracy
02-04-1995,NA,107.35,-2.7,Attempted,"Gelasa Straits, Indonesia",IDN,IDN,17.16348096,107.4257919,-2.835219008,NA,Konkar Pioneer,NA,Steaming,mappingpiracy
03-04-1995,NA,50.81,12.145,Boarding,Somalia,SOM,SOM,17.29458699,50.79786359,11.98911865,NA,Full City,NA,Steaming,mappingpiracy
05-04-1995,NA,113.445,16.2183333,Attempted,Hong Kong - Luzon - Hainan Area,CHN,CHN,90.06288579,112.736827,16.6602237,NA,Amer Prabha,NA,Steaming,mappingpiracy
05-04-1995,NA,48.4136,4.9115,Attempted,"Somalia Coast, Africa",SOM,SOM,20.83466191,48.32886804,5.079657294,NA,Longo Barda,NA,Steaming,mappingpiracy
09-04-1995,NA,52.0142,26.8085,Boarding,Persian Gulf,IRN,IRN,83.84692291,52.60132897,27.35293203,NA,Sea Wolf 102,NA,NA,mappingpiracy
09-04-1995,NA,120.82,18.7616667,Attempted,"Hong Kong - Luzon - Hainan Area, Philippines",PHL,PHL,12.89720573,120.8342391,18.64594147,NA,Nikolay Kuznetsov,NA,Steaming,mappingpiracy
11-04-1995,NA,121.625,19.715,Attempted,"Hong Kong - Luzon - Hainan, N. Philippines",PHL,PHL,33.45507754,121.8968205,19.55687084,NA,LNG Rheingas,NA,Steaming,mappingpiracy
11-04-1995,NA,121.625,19.7166667,Attempted,"Balintan channel, HLH Philippines",PHL,PHL,33.55186019,121.8968205,19.55687084,NA,NA,NA,Steaming,mappingpiracy
12-04-1995,NA,117.25,-1.0416667,Boarding,"Muara Jawa anchorage, Samarinda, Indonesia",IDN,IDN,11.65232426,117.1639104,-0.981703383,NA,Arctic Trader,NA,Anchored,mappingpiracy
18-04-1995,NA,114.2617,11.0466667,Hijacked,4.9 miles off Hong Kong waters,CHN,CHN,1.142258373,114.2716577,11.04352448,NA,Vietxo 8,NA,Steaming,mappingpiracy
18-04-1995,NA,104.75,-2.9765,Boarding,"River Passage, Palembang, Indonesia",IDN,IDN,32.92288346,104.5472111,-2.759535415,NA,Hafetzah,NA,Steaming,mappingpiracy
18-04-1995,NA,106.6,7.9166667,Attempted,South China Sea,VNM,VNM,81.24360354,106.5833439,8.651068427,NA,Kuanyin,NA,Steaming,mappingpiracy
22-04-1995,NA,50.8,12.15,Hijacked,Somalia,SOM,SOM,17.79867237,50.79786359,11.98911865,NA,Radnor,NA,Steaming,mappingpiracy
26-04-1995,NA,106.875,-6.0886667,Boarding,"Berth 115, Tanjung Priok, Indonesia",IDN,IDN,4.407541808,106.8377385,-6.102715753,NA,Bass Reefer,NA,Berthed,mappingpiracy
28-04-1995,NA,50.7167,12.1333333,Attempted,Somalia,SOM,SOM,17.39666062,50.77198327,11.98578522,NA,Ming Bright,NA,Steaming,mappingpiracy
28-04-1995,NA,-46.2872,-23.9761667,Boarding,"Santos, Brazil",BRA,BRA,0.559772463,-46.29161536,-23.9791806,NA,Nordcloud,NA,Berthed,mappingpiracy
29-04-1995,NA,124.6,5.8833333,Attempted,"6 miles off Mindanao Coast, Philippines",PHL,PHL,11.26466144,124.6364852,5.978420315,NA,Johanna,NA,Steaming,mappingpiracy
01-05-1995,NA,53.3833,12.95,Attempted,"Somalia, East Africa",YEM,YEM,29.20640232,53.49986925,12.71206451,NA,Darya Geeth,NA,Steaming,mappingpiracy
01-05-1995,NA,53.3833,12.95,Attempted,Somalia,YEM,YEM,29.20640232,53.49986925,12.71206451,NA,DSR Tianjin,NA,Steaming,mappingpiracy
01-05-1995,NA,105.9167,-6.0433333,Boarding,"Anyer Inner Anchorage, Indonesia",IDN,IDN,4.388564132,105.8878687,-6.070570571,NA,LPG/C Prins Philips Willem,NA,Anchored,mappingpiracy
03-05-1995,NA,51.0333,12.2,Attempted,Somalia,SOM,SOM,30.40064263,50.97008259,11.93232251,NA,Liliana Dimitrova,NA,Steaming,mappingpiracy
03-05-1995,NA,50.0678,4.7999,Attempted,100NM off Somalia,SOM,SOM,174.5903662,48.64673913,5.480047919,NA,LPG Gas Al-Kuwait,NA,Steaming,mappingpiracy
03-05-1995,NA,50.85,12.1,Attempted,Somalia,SOM,SOM,13.51596071,50.79786359,11.98911865,NA,Mecca 1,NA,Steaming,mappingpiracy
05-05-1995,NA,118.1167,5.8266667,Boarding,"Shell timur Berth, Sandakan, Sabah, Malaysia",MYS,MYS,2.313767863,118.0959579,5.82416413,NA,LPG Java Rainbow,NA,Berthed,mappingpiracy
05-05-1995,NA,124.3167,5.8,Attempted,"18NM from Mindanao, Philippines",PHL,PHL,36.23712004,124.4218856,6.110296942,NA,LPG Lady Rowena,NA,Steaming,mappingpiracy
09-05-1995,NA,100.6067,13.3516667,Boarding,"Pier 22, Bangkok port, Thailand",THA,THA,18.45410035,100.5559188,13.51089102,NA,Zim Bangkok,NA,Anchored,mappingpiracy
10-05-1995,NA,-43.1667,-22.8933333,Boarding,"Petrobras Terminal, Rio de Janeiro, Brazil",BRA,BRA,0.539139852,-43.16209876,-22.8956845,NA,Stolt Spur,NA,NA,mappingpiracy
11-05-1995,NA,11.3063,56.5878,NA,"Between Anholt Isoalnd and Grena Island, Denmark",DNK,DNK,17.20167168,11.52458744,56.68471914,NA,Anholt,NA,Steaming,mappingpiracy
12-05-1995,NA,43.435,12.0072,Hijacked,"Djibouti, E. Africa",DJI,DJI,4.654284947,43.39877363,12.02952709,NA,SB408,NA,NA,mappingpiracy
12-05-1995,NA,113.5333,22.1333333,Boarding,"China, PRC",CHN,CHN,1.043415764,113.5271102,22.12588125,NA,Egmondgracht,NA,Anchored,mappingpiracy
14-05-1995,NA,113.2753,23.108,Boarding,"Guangzhou, China, PRC",CHN,CHN,12.93366196,113.3986923,23.0833194,NA,Quebec,NA,Berthed,mappingpiracy
15-05-1995,NA,112.7467,-7.1885,Boarding,"Berth405, Surabaya port, Indonesia",IDN,IDN,1.852101831,112.7451278,-7.205173435,NA,Zervos,NA,Berthed,mappingpiracy
16-05-1995,NA,-43.1667,-22.8933333,Boarding,"At the Berth of Rio de Janeiro, Brazil",BRA,BRA,0.539139852,-43.16209876,-22.8956845,NA,IBN Qutalbah,NA,NA,mappingpiracy
18-05-1995,NA,104.1099,1.323,Boarding,"3NM off Horsburgh Light House, Singapore Straits",MYS,MYS,5.049369497,104.1140243,1.368475653,NA,SMF 1104,NA,Steaming,mappingpiracy
21-05-1995,NA,113.8,22.1166667,Boarding,"Guishan Dao, Peral river estuary, China",CHN,CHN,10.11223592,113.8464462,22.19708893,NA,Great Cheer,NA,Anchored,mappingpiracy
31-05-1995,NA,50.0833,12.015,Hijacked,"3NM off Alula, Somalia",SOM,SOM,49.57221637,50.37232507,11.66893138,NA,Anomis,NA,Steaming,mappingpiracy
31-05-1995,NA,50.0833,12.015,Hijacked,"Alula, Somalia",SOM,SOM,49.57221637,50.37232507,11.66893138,NA,Bonsella,NA,Steaming,mappingpiracy
01-06-1995,NA,119.5011,23.9273,Boarding,"45 miles off the Taiwan west Coast, Taiwan Straits",TWN,TWN,28.27467371,119.5664169,23.67918529,NA,NA,NA,Steaming,mappingpiracy
02-06-1995,NA,107.0568,10.344,Boarding,"Vung Tau Anchorage, Vietnam",VNM,VNM,3.669869041,107.0737411,10.37262604,NA,Petro Concord,NA,Anchored,mappingpiracy
03-06-1995,NA,113.4317,16.2216667,Attempted,Vietnam,CHN,CHN,88.67048487,112.736827,16.6602237,NA,Amer Prabha,NA,Steaming,mappingpiracy
04-06-1995,NA,121.9667,19.35,Attempted,Hong Kong - Luzon - Hainan Area,PHL,PHL,15.70478852,121.9609481,19.49176667,NA,Svea Trader,NA,Steaming,mappingpiracy
07-06-1995,NA,70.3167,23,Boarding,"2.9NM SW of Tuna Buoy, Kandla, India",IND,IND,5.796385225,70.29175866,22.95302969,NA,Agrilia,NA,Steaming,mappingpiracy
09-06-1995,NA,114.1333,22.15,Boarding,"Lamma Anchorage ILD, Hong Kong",CHN,CHN,3.214374042,114.1373804,22.17877839,NA,Robin,NA,Anchored,mappingpiracy
10-06-1995,NA,114.5333,22.7,Hijacked,"Hainan, China",CHN,CHN,0.098898336,114.5324813,22.69953034,NA,Faesongsan,NA,Steaming,mappingpiracy
12-06-1995,NA,113.8333,22.1833333,Hijacked,Between Hong Kong and Macau,CHN,CHN,2.039121421,113.8464462,22.19708893,NA,GUIA,NA,Steaming,mappingpiracy
14-06-1995,NA,107.0568,10.344,Boarding,"Vung Tau, Vietnam",VNM,VNM,3.669869041,107.0737411,10.37262604,NA,Ocean Bird,NA,Anchored,mappingpiracy
16-06-1995,NA,104.75,-2.9765,Boarding,"Plaju, Palembang River, Sumatera, Indonesia",IDN,IDN,32.92288346,104.5472111,-2.759535415,NA,Hafetzah,NA,NA,mappingpiracy
23-06-1995,NA,102.5594,10.2285,Hijacked,Cambodian Territorial Waters,KHM,KHM,89.31432158,103.2921656,10.58315664,NA,Hye Mieko,NA,NA,mappingpiracy
23-06-1995,NA,110.4,21.1765,Boarding,"Buoy 10, Zhanjiang Inner Anchorage, China",CHN,CHN,0.060417505,110.3994247,21.17658112,NA,Prince of Tokyo,NA,Anchored,mappingpiracy
24-06-1995,NA,106.875,-6.0886667,Attempted,"Outer Roads, Jakarta Anchorage, Indonesia",IDN,IDN,4.407541808,106.8377385,-6.102715753,NA,Kassos,NA,Anchored,mappingpiracy
30-06-1995,NA,104.9167,-2.8033333,Boarding,"Palembang River, Indonesia",IDN,IDN,31.25467187,104.7314559,-2.590752863,NA,Petro Concord,NA,Steaming,mappingpiracy
04-07-1995,NA,108.3817,21.4616667,Boarding,"Fangcheng Anchorage, China",CHN,CHN,11.06962341,108.4021102,21.55980052,NA,Dona,NA,Anchored,mappingpiracy
04-07-1995,NA,101.7333,2.1666667,Attempted,Malacca Straits,IDN,IDN,8.586976628,101.6816512,2.108954169,NA,General Monarch,NA,Steaming,mappingpiracy
07-07-1995,NA,70.3221,22.8783,Boarding,"4.5 miles from Tuna Buoy, Kandla Port, India",IND,IND,4.44019471,70.34294681,22.84316641,NA,Al Wataniah,NA,Anchored,mappingpiracy
07-07-1995,NA,70.2203,22.8196667,Boarding,"Kandla Anchorage, India",IND,IND,10.43106631,70.32154382,22.81171296,NA,Al Natania,NA,Anchored,mappingpiracy
14-07-1995,NA,114.14,20.1166667,Boarding,Hong Kong Port,CHN,CHN,208.529519,113.7644768,21.96681793,NA,Summer,NA,Anchored,mappingpiracy
18-07-1995,NA,114.1667,22.1166667,Boarding,"Off port limits, Hong Kong",CHN,CHN,7.213017487,114.1453557,22.17869701,NA,Amorgos,NA,Anchored,mappingpiracy
19-07-1995,NA,113.8933,22.0733333,Boarding,"Huangpu Anchorage, China",CHN,CHN,14.53120548,113.8464462,22.19708893,NA,Ikan Selangat,NA,Anchored,mappingpiracy
20-07-1995,NA,115.8583,-5.0166667,Attempted,"Java Sea, Indonesia",IDN,IDN,22.28486119,115.806814,-4.821872654,NA,ICL Rajarajan,NA,Steaming,mappingpiracy
23-07-1995,NA,104.9167,-2.3,Boarding,"Palembang River, Indonesia",IDN,IDN,1.660206584,104.908702,-2.312676691,NA,Trans Hercules,NA,Steaming,mappingpiracy
23-07-1995,NA,113.8,22.1166667,Boarding,"Quarantine Acnhorage, Huangpu, China",CHN,CHN,10.11223592,113.8464462,22.19708893,NA,Stalo,NA,Anchored,mappingpiracy
23-07-1995,NA,-77.1667,-12.0167,Boarding,"335degs, 3.2NM of North Breakwater, Callo, Peru",PER,PER,2.455616305,-77.1450903,-12.02304453,NA,LPG EMSGAS,NA,Anchored,mappingpiracy
24-07-1995,NA,114.24,22.1266667,Hijacked,"Hainan, China",CHN,CHN,7.524708543,114.219493,22.1918806,NA,Milen Trung,NA,Steaming,mappingpiracy
30-07-1995,NA,-43.1667,-22.8933333,Boarding,"Rio de Janeiro, Brazil",BRA,BRA,0.539139852,-43.16209876,-22.8956845,NA,Hanso Clipper,NA,NA,mappingpiracy
31-07-1995,NA,114.1333,22.15,Boarding,"Lamma Island, Hong Kong",CHN,CHN,3.214374042,114.1373804,22.17877839,NA,MT Star Orchid,NA,NA,mappingpiracy
31-07-1995,NA,114.1333,22.15,Boarding,"Lamma Island, Hong Kong",CHN,CHN,3.214374042,114.1373804,22.17877839,NA,Sang Thai,NA,NA,mappingpiracy
01-08-1995,NA,113.8933,22.075,Attempted,"Huang  pu Anchorage, China",CHN,CHN,14.34757456,113.9062606,22.20400625,NA,MV Ikan Selangat,NA,Anchored,mappingpiracy
01-08-1995,NA,91.7932,22.2166667,Boarding,"Chittagong, Bangladesh",BGD,BGD,2.329971162,91.81202233,22.20502351,NA,Inzhener Yamburenko,NA,Anchored,mappingpiracy
02-08-1995,NA,105.1667,-5.4666667,Boarding,"Panjang road, Indonesia",IDN,IDN,8.927250019,105.2463485,-5.478773696,NA,Gotze Delchev,NA,Anchored,mappingpiracy
04-08-1995,NA,79.8432,6.95,Boarding,"Colombo Roads, 1.5NM from port entrance, Sri Lanka",LKA,LKA,1.450377734,79.84815514,6.962144273,NA,Nedlloyd Sao Paolo,NA,Anchored,mappingpiracy
05-08-1995,NA,113.4167,23.08333333,Boarding,"Huangpu, China",CHN,CHN,1.514723112,113.4174911,23.09699128,NA,Her Fah,NA,NA,mappingpiracy
06-08-1995,NA,114.16,22.1166667,Boarding,Hong Kong,CHN,CHN,7.032910972,114.1453557,22.17869701,NA,Her Fah,NA,Anchored,mappingpiracy
07-08-1995,NA,114.6833,22.0666667,Attempted,"Huangpu, China",CHN,CHN,38.52289236,114.3100692,22.06858959,NA,President Harrison,NA,Steaming,mappingpiracy
08-08-1995,NA,100.2997,3.7998,Hijacked,"31NM off Tanjung Sauh, Kuala Lumpur, Malaysia",MYS,MYS,46.15569348,100.7033798,3.898871161,NA,NA,NA,Steaming,mappingpiracy
10-08-1995,NA,3.4167,6.4166667,Boarding,"No. 16 Berth Apapa, Nigeria",NGA,NGA,0.57371893,3.421153191,6.41400788,NA,Kelvin Fortune,NA,Steaming,mappingpiracy
10-08-1995,NA,113.7917,22.1216667,Boarding,"Huangpu, China",CHN,CHN,10.08155668,113.8464462,22.19708893,NA,Erasmusgracht,NA,Anchored,mappingpiracy
14-08-1995,NA,107.85,6.9,Attempted,South China Sea,IDN,VNM,235.9127034,108.0051376,4.772365627,NA,British Esk,NA,Steaming,mappingpiracy
14-08-1995,NA,114.1333,22.15,Boarding,"Lamma Island, Hong Kong",CHN,CHN,3.214374042,114.1373804,22.17877839,NA,National Dignity,NA,NA,mappingpiracy
16-08-1995,NA,4.6667,5.1141,Boarding,"Aff Cayos Miskitos, approximately 40nm off coast of Nigaragua",NGA,NGA,72.82304981,5.19800866,5.501450914,NA,Lady Diana,NA,NA,mappingpiracy
22-08-1995,NA,-43.1667,-22.8933333,Boarding,"Rio Inner Roads, Brazil",BRA,BRA,0.539139852,-43.16209876,-22.8956845,NA,Nedlloyd Cristobal,NA,Anchored,mappingpiracy
22-08-1995,NA,108.0833,0.75,Boarding,Indonesia,IDN,IDN,60.83166495,107.6015731,1.009833075,NA,Essberger Pilot,NA,Steaming,mappingpiracy
23-08-1995,NA,-46.2872,-23.9761667,Attempted,"Off Port of Santos, Brazil",BRA,BRA,0.559772463,-46.29161536,-23.9791806,NA,Tamatiki,NA,Steaming,mappingpiracy
23-08-1995,NA,-43.1667,-22.8933333,Boarding,"Rio Inner Roads, Brazil",BRA,BRA,0.539139852,-43.16209876,-22.8956845,NA,Nedlloyd Cristobal,NA,Berthed,mappingpiracy
31-08-1995,NA,114.9,21.4166667,Attempted,Vietnam,CHN,CHN,93.05592021,114.3025008,22.04486726,NA,Aries,NA,Steaming,mappingpiracy
10-09-1995,NA,88.0717,21.8783333,Boarding,"Hooghly River, India",IND,IND,0.528040826,88.07105554,21.87360261,NA,Sunny Diamond,NA,NA,mappingpiracy
10-09-1995,NA,88.0717,21.8783333,Boarding,"Hooghly River, India",IND,IND,0.528040826,88.07105554,21.87360261,NA,NA,NA,Steaming,mappingpiracy
12-09-1995,NA,75.5352,10.415,Boarding,"Anchorage of Cartagena, Colombia",IND,IND,54.42988952,76.00806725,10.56708405,NA,NA,NA,Anchored,mappingpiracy
13-09-1995,NA,102,11.25,Hijacked,Malaysia,THA,THA,69.90770353,102.5300399,11.60492585,NA,Anna Sierra,NA,NA,mappingpiracy
13-09-1995,NA,100.6067,13.3516667,Boarding,"Bangkok Bar Anchorage, Thailand",THA,THA,18.45410035,100.5559188,13.51089102,NA,Nzol'Contender,NA,Anchored,mappingpiracy
20-09-1995,NA,79.8432,6.95,Boarding,"Colombo Harbour, Sri Lanka",LKA,LKA,1.450377734,79.84815514,6.962144273,NA,Tiger Speed,NA,Anchored,mappingpiracy
28-09-1995,NA,79.8133,7,Boarding,"Colombo Anchorage, Sri Lanka",LKA,LKA,5.226616052,79.85922285,6.988674221,NA,Cathay Rainbow,NA,Anchored,mappingpiracy
04-10-1995,NA,17.1932,40.4265,Boarding,"At anchora off Port of Taranto East, Y3 Anchorage, italy",ITA,ITA,0.901596811,17.20020593,40.42039623,NA,Duhallow,NA,Anchored,mappingpiracy
07-10-1995,NA,70.2203,22.8196667,Attempted,"Kandlaa Port, India",IND,IND,10.43106631,70.32154382,22.81171296,NA,Torm Gotland,NA,NA,mappingpiracy
08-10-1995,NA,70.2195,22.8937,Boarding,"Off Tunabuoy anchorage, Kandela, India",IND,IND,6.669700385,70.20411218,22.95221589,NA,Bow Lady,NA,NA,mappingpiracy
10-10-1995,NA,88.3167,22.53333333,Boarding,"Hugly River, Culcutta port, India",IND,IND,40.73984547,88.07732181,22.2404239,NA,Yun Cheng,NA,Steaming,mappingpiracy
15-10-1995,NA,-46.3167,-24.0925,Boarding,"At anchora 11 miles south of Santos, Brazil",BRA,BRA,8.432210554,-46.3173722,-24.01637135,NA,CMBT America,NA,NA,mappingpiracy
15-10-1995,NA,114.1833,22.26666667,Boarding,Hong Kong territorial waters,CHN,CHN,1.477877473,114.1788843,22.27936433,NA,Australian Endeavour,NA,Anchored,mappingpiracy
17-10-1995,NA,114.1333,22.15,Boarding,"Lamma Anchorage ILD, Hong Kong",CHN,CHN,3.214374042,114.1373804,22.17877839,NA,Hastula,NA,Anchored,mappingpiracy
17-10-1995,NA,79.8432,6.95,Boarding,"Colombo Anchorage, Sri Lanka",LKA,LKA,1.450377734,79.84815514,6.962144273,NA,Hastula,NA,Anchored,mappingpiracy
18-10-1995,NA,119.4,-5.133333333,Boarding,"Alongside Pandang, Indonesia",IDN,IDN,1.096666353,119.4036564,-5.124118748,NA,Atoyak,NA,NA,mappingpiracy
18-10-1995,NA,100.6067,13.3516667,Boarding,"Bangkok Anchorage, Thailand",THA,THA,18.45410035,100.5559188,13.51089102,NA,Socofl Wave,NA,Anchored,mappingpiracy
19-10-1995,NA,-46.2872,-23.9761667,Boarding,"Santos Road, Brazil",BRA,BRA,0.559772463,-46.29161536,-23.9791806,NA,Nedlloyd Zeelandia,NA,NA,mappingpiracy
19-10-1995,NA,-46.2872,-23.9761667,Boarding,"At anchor off Port of Santos, Brazil",BRA,BRA,0.559772463,-46.29161536,-23.9791806,NA,TRSL Concord,NA,Anchored,mappingpiracy
23-10-1995,NA,-43.1667,-22.8933333,Boarding,"Rio de Janeiro, Brazil",BRA,BRA,0.539139852,-43.16209876,-22.8956845,NA,Siboeif,NA,NA,mappingpiracy
27-10-1995,NA,122.7689,7.7433,Boarding,"Coast of Kabasaian Zamboanga Del Sur, Philippines",PHL,PHL,2.228372972,122.7804468,7.759833075,NA,NA,NA,Steaming,mappingpiracy
30-10-1995,NA,-13.7167,9.516666667,Boarding,"At Conackry Roads, Guinea",GIN,GIN,0.666718226,-13.71890215,9.522284247,NA,Dodo,NA,Steaming,mappingpiracy
30-10-1995,NA,79.8432,6.95,Boarding,"Colombo Anchorage, Sri Lanka",LKA,LKA,1.450377734,79.84815514,6.962144273,NA,NA,NA,Anchored,mappingpiracy
30-10-1995,NA,107.3167,-2.97,Boarding,Indonesia,IDN,IDN,9.24768267,107.369247,-2.905168981,NA,Charisma,NA,Steaming,mappingpiracy
31-10-1995,NA,98.7,4.65,Boarding,Straits of Malacca,IDN,IDN,53.24999618,98.275564,4.425360419,NA,Kota Barlian,NA,Steaming,mappingpiracy
31-10-1995,NA,118.8833,4.15,Boarding,"Off Pulay Ligitan, Sabah, Malaysia",MYS,MYS,36.78960066,118.7561141,4.45722077,NA,Tropical 88,NA,Steaming,mappingpiracy
01-11-1995,NA,114.1667,22.1166667,Boarding,"China, PRC",CHN,CHN,7.213017487,114.1453557,22.17869701,NA,Nicosia,NA,Steaming,mappingpiracy
03-11-1995,NA,-46.2872,-23.9761667,Boarding,"At anchor, 15 miles south of pilot station Santos Roads, Brazil",BRA,BRA,0.559772463,-46.29161536,-23.9791806,NA,Nedlloyd Zeelandia,NA,Anchored,mappingpiracy
04-11-1995,NA,9.5,0.283333333,Boarding,"On the road to Owenda, Gabon",GAB,GAB,0.870702735,9.498057488,0.290961005,NA,Kuusalu,NA,Steaming,mappingpiracy
09-11-1995,NA,118.2061,-2.1352,Boarding,"Macassar Straits, Indonesia",IDN,IDN,86.28829406,118.806163,-2.629815363,NA,Ivory Ace,NA,Steaming,mappingpiracy
12-11-1995,NA,108.3645,21.5778,Boarding,Fang Cheng,CHN,CHN,2.622715726,108.3896591,21.5751,NA,Rainbow Sky,NA,Anchored,mappingpiracy
12-11-1995,NA,118.0808,5.805,Boarding,"Sandakan, Sabah, East Malaysia",MYS,MYS,1.147709756,118.0810653,5.815375067,NA,Jianshe 35,NA,Berthed,mappingpiracy
14-11-1995,NA,107.215,-4.5116667,Boarding,Indonesia,IDN,IDN,144.9356763,105.9094344,-4.54664479,NA,Stolt Emerald,NA,Steaming,mappingpiracy
15-11-1995,NA,39.3533,-6.775,Boarding,"Dar Es Salam Anchorage, Tanzania",TZA,TZA,5.977859498,39.32650801,-6.821954034,NA,Eurogracht,NA,Anchored,mappingpiracy
16-11-1995,NA,105.999,1.0186667,Boarding,South of Singapore,IDN,IDN,127.6651934,104.8527938,0.975490627,NA,Scan Eagle,NA,NA,mappingpiracy
25-11-1995,NA,114.1833,22.26666667,Boarding,Hong Kong waters,CHN,CHN,1.477877473,114.1788843,22.27936433,NA,Yeung Kong,NA,Steaming,mappingpiracy
25-11-1995,NA,114.2,22.2666667,Boarding,Hong Kong Harbour,CHN,CHN,2.477473174,114.2063908,22.28823477,NA,Sokoinki,NA,Anchored,mappingpiracy
26-11-1995,NA,90.025,21.9698333,Attempted,Somalia,BGD,BGD,2.04946385,90.02816817,21.98810456,NA,Triptolemos,NA,Steaming,mappingpiracy
27-11-1995,NA,116.7667,-1.4433333,Boarding,"Lawi Lawi, Indonesia",IDN,IDN,8.203035197,116.7397567,-1.374281508,NA,Stena Concert,NA,Anchored,mappingpiracy
30-11-1995,NA,120.1529,16.6962,Attempted,Northern Philippines (Luzon coordinates used),PHL,PHL,16.12126982,120.2761337,16.61188386,NA,NA,NA,NA,mappingpiracy
05-12-1995,NA,128,9.6666667,Attempted,East Philippines,PHL,PHL,199.3326679,126.22462,9.290961005,NA,Orhan Ekinci,NA,NA,mappingpiracy
12-12-1995,NA,121.0432,13.75,Boarding,"Batangas Bay, Indonesia",PHL,PHL,1.029525649,121.0398055,13.75869375,NA,Lady Rowena,NA,Anchored,mappingpiracy
14-12-1995,NA,117.25,-1.0383333,Boarding,"Maura Jawa, Indonesia",IDN,IDN,11.44660674,117.1639104,-0.981703383,NA,Pearl Prosperity,NA,Anchored,mappingpiracy
17-12-1995,NA,-46.2872,-23.9761667,Boarding,"Santos Roads, Santos, Brazil",BRA,BRA,0.559772463,-46.29161536,-23.9791806,NA,Zim Santos,NA,Anchored,mappingpiracy
21-12-1995,NA,114.2599,22.1692,Attempted,"Off Po Toi Island, Hong Kong",CHN,CHN,3.829092678,114.2561141,22.20359935,NA,NA,NA,Steaming,mappingpiracy
22-12-1995,NA,106.875,-6.0886667,Boarding,"Tanjung Priok, Jakarta, Indonesia",IDN,IDN,4.407541808,106.8377385,-6.102715753,NA,Tacora,NA,Anchored,mappingpiracy
23-12-1995,NA,116.66,-1.6916667,Boarding,"Adang bay Anchorage, East Kalimantan, Indonesia",IDN,IDN,14.81403847,116.557465,-1.606215102,NA,Magnus Stove,NA,Anchored,mappingpiracy
27-12-1995,NA,-4.0283,5.2166667,Boarding,"Ghana, Western Africa",CIV,CIV,3.971128552,-3.995757616,5.231675523,NA,Columbine,NA,Anchored,mappingpiracy
03-01-1996,NA,79.8517,6.9583333,Attempted,"Colombo Roads, Sri Lanka",LKA,LKA,0.5753897,79.84815514,6.962144273,NA,Ardmore,NA,Anchored,mappingpiracy
03-01-1996,NA,112.7235,-7.2038333,Boarded,"Surabaya, Indonesia",IDN,IDN,1.955988514,112.7295028,-7.220472915,NA,Juntha Sarunpak,NA,Anchored,mappingpiracy
04-01-1996,NA,-74.7583,10.9583333,Boarded,"Baranquilla Anchorage, Colombia",COL,COL,12.75298674,-74.74317375,11.07265253,NA,Puma,NA,Anchored,mappingpiracy
05-01-1996,NA,-58.1875,6.6933333,Attempted,"Georgetown, Guyana",GUY,GUY,13.42609074,-58.16966712,6.813421942,NA,Kamillo Sjenfuegoss,NA,Anchored,mappingpiracy
07-01-1996,NA,100.5983,13.6908333,Boarded,"Bangkok Bar, Thailand",THA,THA,8.694295687,100.5978296,13.61225007,NA,Bonsoon 2,NA,Anchored,mappingpiracy
08-01-1996,NA,79.8517,6.9583333,Attempted,"Colombo Roads, Sri Lanka",LKA,LKA,0.5753897,79.84815514,6.962144273,NA,Nedlloyd Rio,NA,Anchored,mappingpiracy
08-01-1996,NA,112.6633,7.1083333,Boarded,"Gresik, Indonesia",MYS,BRN,313.675992,113.9758407,4.594712632,NA,Ossolineum,NA,Anchored,mappingpiracy
08-01-1996,NA,112.7235,-7.2038333,Boarded,"Surabaya, Indonesia",IDN,IDN,1.955988514,112.7295028,-7.220472915,NA,Celje,NA,Anchored,mappingpiracy
10-01-1996,NA,79.8517,6.9583333,Boarded,"Colombo Roads, Sri Lanka",LKA,LKA,0.5753897,79.84815514,6.962144273,NA,Med Marseilles,NA,Anchored,mappingpiracy
12-01-1996,NA,-77.205,-12.1283333,Boarded,"Callao Anchorage, Peru",PER,PER,1.488871853,-77.20439316,-12.11488761,NA,Abiasgracht,NA,Anchored,mappingpiracy
13-01-1996,NA,106.9025,-6.0976667,Boarded,"Tanjung Priok, Indonesia",IDN,IDN,7.190381219,106.8377385,-6.102715753,NA,Heug-a-Strait,NA,Anchored,mappingpiracy
16-01-1996,NA,112.7235,-7.2038333,Boarded,"Surabaya, Indonesia",IDN,IDN,1.955988514,112.7295028,-7.220472915,NA,Botic,NA,Anchored,mappingpiracy
16-01-1996,NA,39.7363,41.0033333,Hijacked,"Trabzon, Turkey",TUR,TUR,1.624357473,39.72999108,41.01715729,NA,Avrasya,NA,Anchored,mappingpiracy
18-01-1996,NA,112.6633,7.1083333,Boarded,"Gresik, Indonesia",MYS,BRN,313.675992,113.9758407,4.594712632,NA,Y. Lutibrodski,NA,Anchored,mappingpiracy
18-01-1996,NA,112.6633,7.1083333,Attempted,"Gresik Roads, Surabaya, Indonesia",MYS,BRN,313.675992,113.9758407,4.594712632,NA,Y. Lutibrodski,NA,Anchored,mappingpiracy
19-01-1996,NA,100.5983,13.6908333,Boarded,"Bangkok, Thailand",THA,THA,8.694295687,100.5978296,13.61225007,NA,Cotnari,NA,Anchored,mappingpiracy
20-01-1996,NA,112.6633,7.1083333,Attempted,"Gresik, Indonesia",MYS,BRN,313.675992,113.9758407,4.594712632,NA,Y. Lutibrodski,NA,Anchored,mappingpiracy
20-01-1996,NA,123.8667,30.8333333,Attempted,East China Sea,CHN,CHN,128.628867,122.5293075,30.72077058,NA,Grigorly Petrenko,NA,Steaming,mappingpiracy
21-01-1996,NA,39.2765,-6.8265,Boarded,"Outer Anchorage, Dar Es Salaam, Tanzania",TZA,TZA,0.608711877,39.28028405,-6.830498956,NA,Rundale,NA,Anchored,mappingpiracy
27-01-1996,NA,105.9193,-6.0418333,Boarded,"Anyer, Indonesia",IDN,IDN,4.712374625,105.8878687,-6.070570571,NA,Norgas Pioneer,NA,Anchored,mappingpiracy
29-01-1996,NA,96.1687,6.7595,Boarded,"Yangon, Burma",IDN,IDN,132.2134666,95.34180749,5.896429755,NA,Lily,NA,Anchored,mappingpiracy
07-02-1996,NA,70.2203,23.0243333,Attempted,"Kandia Roads, India",IND,IND,2.981710221,70.23308353,23.00014883,NA,Norgas Trader,NA,Anchored,mappingpiracy
07-02-1996,NA,-4,5.2931667,Boarded,"Abidjan, Ivory Coast",CIV,CIV,1.268660948,-3.999623176,5.30463288,NA,Mega Sun,NA,Anchored,mappingpiracy
08-02-1996,NA,-76.7533,17.7366667,Boarded,"Off Kingston, Jamaica",JAM,JAM,21.2955163,-76.61314857,17.87449779,NA,Norgas Transported,NA,Steaming,mappingpiracy
09-02-1996,NA,106.8867,-6.0338333,Boarded,"Jakarta Anchorage, Indonesia",IDN,IDN,9.348946503,106.8377385,-6.102715753,NA,Equator Crystal,NA,Anchored,mappingpiracy
11-02-1996,NA,106.8867,-6.0338333,Boarded,"Jakarta Roads, Indonesia",IDN,IDN,9.348946503,106.8377385,-6.102715753,NA,Cimbria,NA,Anchored,mappingpiracy
11-02-1996,NA,104.7218,1.289,Attempted,"Tanjung Pagar, Singapore (Documentation listed incorrectly as Indonesia)",IDN,IDN,16.84261994,104.5869247,1.219916083,NA,Dragon Komodo,NA,Anchored,mappingpiracy
13-02-1996,NA,112.7235,-7.2038333,Boarded,"Surabaya, Indonesia",IDN,IDN,1.955988514,112.7295028,-7.220472915,NA,A. Selamat,NA,Anchored,mappingpiracy
19-02-1996,NA,100.5983,13.6908333,Boarded,"Bangkok Bar, Thailand",THA,THA,8.694295687,100.5978296,13.61225007,NA,Berge Commander,NA,Anchored,mappingpiracy
26-02-1996,NA,121.9964,6.7427,Boarded,"Off Basilan Island, Philippines",PHL,PHL,2.311607135,122.0129501,6.729925848,NA,MN-3 Nomina,NA,Steaming,mappingpiracy
27-02-1996,NA,70.2203,23.0243333,Boarded,"Kandia Roads, India",IND,IND,2.981710221,70.23308353,23.00014883,NA,Norgas Trader,NA,Anchored,mappingpiracy
04-03-1996,NA,103.75,10.45,Attempted,"Sihanoukville, Cambodia",KHM,KHM,1.627596787,103.7519637,10.46458568,NA,Mint Zoom,NA,Steaming,mappingpiracy
04-03-1996,NA,120.9428,14.5211667,Boarded,"Mandave, Manila, Philippines",PHL,PHL,3.658996985,120.9703882,14.50189851,NA,Prins Alexander,NA,Anchored,mappingpiracy
05-03-1996,NA,120.9428,14.5211667,Boarded,"Manila Bay, Philippines",PHL,PHL,3.658996985,120.9703882,14.50189851,NA,Emmagracht,NA,Anchored,mappingpiracy
05-03-1996,NA,102.4633,1.85,Attempted,Malacca Straits,MYS,MYS,20.90607793,102.5688583,2.006415106,NA,Mighty Tide,NA,Steaming,mappingpiracy
06-03-1996,NA,-56.204,-34.9033333,Boarded,"Montevideo, Uruguay",URY,URY,0.518034599,-56.20466061,-34.89869557,NA,Nedlloyd Recife,NA,Anchored,mappingpiracy
08-03-1996,NA,120.9428,14.5211667,Boarded,"Manila Roads, Philippines",PHL,PHL,3.658996985,120.9703882,14.50189851,NA,Sea Muse,NA,Anchored,mappingpiracy
09-03-1996,NA,91.8267,22.2383333,Boarded,"Chittagong Anchorage, Bangladesh",BGD,BGD,0.8313377,91.83472741,22.23761628,NA,Eagle Prestige,NA,Anchored,mappingpiracy
11-03-1996,NA,-4,5.2931667,Attempted,"SBM, Abidjan, Ivory Coast",CIV,CIV,1.268660948,-3.999623176,5.30463288,NA,Mega Sun,NA,Berthed,mappingpiracy
12-03-1996,NA,100.6333,13.3333333,Boarded,"Bangkok Bar, Thailand",THA,THA,20.10208534,100.6798609,13.50922272,NA,Norbulk Pine,NA,Anchored,mappingpiracy
12-03-1996,NA,106.9,-6,Boarded,"Tanjung Priok, Indonesia",IDN,IDN,10.97127439,106.9990341,-6.003513279,NA,CHL Innovator,NA,Anchored,mappingpiracy
16-03-1996,NA,112.9535,3.2546667,Boarded,"Off Bintulu, Malaysia (Measured 10km NW of Bintulu)",MYS,MYS,11.92311033,113.0078231,3.161688544,NA,Finima,NA,Anchored,mappingpiracy
18-03-1996,NA,100.5983,13.6908333,Attempted,"Bangkok Bar, Thailand",THA,THA,8.694295687,100.5978296,13.61225007,NA,Eburna,NA,Anchored,mappingpiracy
19-03-1996,NA,112.95,3.2546667,Boarded,"Off Bintulu Anchorage, Malaysia (Measured 10km NW of Bintulu)",MYS,MYS,12.12474512,113.0078231,3.161688544,NA,Waglan Light,NA,NA,mappingpiracy
24-03-1996,NA,114.1558,22.3193333,Boarded,Hong Kong Anchorage,CHN,CHN,0.500998564,114.1595158,22.3222517,NA,Ekhabi,NA,Anchored,mappingpiracy
27-03-1996,NA,-13.7093,9.5098333,Boarded,"Conakry, Guinea",GIN,GIN,0.352190349,-13.70710202,9.512152411,NA,Esperanza,NA,Anchored,mappingpiracy
28-03-1996,NA,100.5983,13.6908333,Boarded,"Bangkok Bar, Thailand",THA,THA,8.694295687,100.5978296,13.61225007,NA,Hansa Rostok,NA,Anchored,mappingpiracy
28-03-1996,NA,98.7007,3.7836667,Boarded,"Pertamina Citra Jetty, Belawan, Indonesia",IDN,IDN,2.482068608,98.71062259,3.803778387,NA,Sembawang,NA,Anchored,mappingpiracy
29-03-1996,NA,112.32,11.79,Hijacked,South China Sea,CHN,VNM,228.3957812,114.2722274,11.04584382,NA,Elaine,NA,Steaming,mappingpiracy
30-03-1996,NA,-46.305,-24.637,Boarded,"Santos Roads, Brazil",BRA,BRA,67.33122822,-46.59341387,-24.08953216,NA,Vogtland,NA,Anchored,mappingpiracy
30-03-1996,NA,114,20.1166667,Boarded,Hong Kong,CHN,CHN,204.5015824,112.7996525,21.57908763,NA,Asia Venus,NA,Anchored,mappingpiracy
06-04-1996,NA,100.5983,13.6908333,Boarded,"Bangkok Bar, Thailand",THA,THA,8.694295687,100.5978296,13.61225007,NA,Alam Tenteram,NA,Anchored,mappingpiracy
08-04-1996,NA,114.1558,22.3193333,Boarded,"Lamma Anchorage, Hong Kong",CHN,CHN,0.500998564,114.1595158,22.3222517,NA,Rathrowan,NA,Anchored,mappingpiracy
08-04-1996,NA,-38.5045,-12.9551667,Boarded,"Inner Anchorage, Salvador, Brazil",BRA,BRA,1.987758077,-38.51838131,-12.96689218,NA,Clipper Sao Paulo,NA,Anchored,mappingpiracy
11-04-1996,NA,112.7235,-7.2038333,Boarded,"Surabaya Inner Anchorage, Indonesia",IDN,IDN,1.955988514,112.7295028,-7.220472915,NA,Bunga Melor Dua,NA,Anchored,mappingpiracy
11-04-1996,NA,98.7007,3.7836667,Boarded,"Belawan Anchorage, Indonesia",IDN,IDN,2.482068608,98.71062259,3.803778387,NA,Bunga Tanjung,NA,Anchored,mappingpiracy
12-04-1996,NA,106.8867,-6.0338333,Boarded,"Jakarta Anchorage, Indonesia",IDN,IDN,9.348946503,106.8377385,-6.102715753,NA,Southgate,NA,Anchored,mappingpiracy
18-04-1996,NA,114.1558,22.3193333,Boarded,Anchorage Hong Kong,CHN,CHN,0.500998564,114.1595158,22.3222517,NA,Darya Kamal,NA,Anchored,mappingpiracy
20-04-1996,NA,112.8667,3.1833333,Boarded,"Bintulu Port, Malaysia",MYS,MYS,12.66909826,112.8005477,3.09003327,NA,Asean Success,NA,Anchored,mappingpiracy
21-04-1996,NA,100.5983,13.6908333,Attempted,"Bangkok Bar, Thailand",THA,THA,8.694295687,100.5978296,13.61225007,NA,Chuy,NA,Anchored,mappingpiracy
21-04-1996,NA,112.8667,3.1833333,Boarded,"Bintulu, Malaysia",MYS,MYS,12.66909826,112.8005477,3.09003327,NA,Alpha Prestige,NA,Anchored,mappingpiracy
24-04-1996,NA,5.4483,5.4333333,Boarded,Nigeria,NGA,NGA,1.000991293,5.439952019,5.42987702,NA,Aros,NA,Steaming,mappingpiracy
24-04-1996,NA,95.1267,6.0711667,Attempted,"Pulau Rondo, Straits of Malacca (Located island coordinates, point on N shore of island)",IDN,IDN,20.29741451,95.21461022,5.91010163,NA,Gotia,NA,Steaming,mappingpiracy
25-04-1996,NA,42.9565,13.6773,Boarded,Off North Yemen,YEM,YEM,19.57546414,42.79184004,13.75071849,NA,Sun Fish 3,NA,Steaming,mappingpiracy
26-04-1996,NA,-43.1913,-22.8765,Boarded,"Rio de Janeiro, Brazil",BRA,BRA,2.178646678,-43.17332923,-22.88697682,NA,Catharina Oldendorff,NA,Berthed,mappingpiracy
27-04-1996,NA,104.8322,-2.9922,Boarded,"Plaju Port, Palembang, Indonesia",IDN,IDN,40.81474507,104.5472111,-2.759535415,NA,Sari Marina,NA,Steaming,mappingpiracy
01-05-1996,NA,113.9138,22.0248,Boarded,"Off Dan Gan Island, China",CHN,CHN,14.87579537,113.7759211,21.98585878,NA,M62935A,NA,Steaming,mappingpiracy
02-05-1996,NA,-43.1913,-22.8765,Boarded,"Rio de Janeiro, Brazil",BRA,BRA,2.178646678,-43.17332923,-22.88697682,NA,San Marino,NA,Anchored,mappingpiracy
02-05-1996,NA,-52.0757,-32.0536667,Boarded,"Rio Grande, Brazil",BRA,BRA,1.852696888,-52.08145098,-32.03769297,NA,Nemea,NA,Berthed,mappingpiracy
02-05-1996,NA,114.1833,22.26666667,Boarded,Hong Kong Waters,CHN,CHN,1.477877473,114.1788843,22.27936433,NA,Zim Canada,NA,Steaming,mappingpiracy
04-05-1996,NA,100.5983,13.6908333,Boarded,"Bangkok Bar, Thailand",THA,THA,8.694295687,100.5978296,13.61225007,NA,Mare Balticum,NA,Anchored,mappingpiracy
07-05-1996,NA,-46.305,-24.637,Boarded,"Santos, Brazil",BRA,BRA,67.33122822,-46.59341387,-24.08953216,NA,Masovia,NA,Anchored,mappingpiracy
08-05-1996,NA,-77.205,-12.1283333,Boarded,"Callao Anchorage, Peru",PER,PER,1.488871853,-77.20439316,-12.11488761,NA,Isla Bartolome,NA,Anchored,mappingpiracy
16-05-1996,NA,91.8267,22.2383333,Boarded,"Chittagong, Bangladesh",BGD,BGD,0.8313377,91.83472741,22.23761628,NA,British Esk,NA,Berthed,mappingpiracy
16-05-1996,NA,100.825,13.138,Boarded,"Kosichang, Thailand",THA,THA,7.253749182,100.8782658,13.09833405,NA,Devotion,NA,Steaming,mappingpiracy
16-05-1996,NA,-38.4867,-12.7916667,Boarded,"Aratu, Brazil",BRA,BRA,1.35113377,-38.49913489,-12.79119232,NA,Socofi,NA,Anchored,mappingpiracy
17-05-1996,NA,-80.0867,-2.52,Boarded,"Guayaquil Port, Ecuador",ECU,ECU,4.446084967,-80.05553138,-2.545179946,NA,Porer,NA,Berthed,mappingpiracy
19-05-1996,NA,104.7218,1.289,Hijacked,OPL Singapore East Anchorage (Coded as Singapore Port),IDN,IDN,16.84261994,104.5869247,1.219916083,NA,Samudra Samrat,NA,Anchored,mappingpiracy
20-05-1996,NA,46.974,-8.0018,Hijacked,"16nm off Arab Bank Sandbar, Somalia  (Off Somali coast",SYC,SYC,158.6908162,46.44776452,-9.337660415,NA,SB408,NA,Steaming,mappingpiracy
21-05-1996,NA,116.5165,-8.7838,Boarded,"Tanjung Lelar, Bangka Straits, Indonesia",IDN,IDN,0.661437535,116.5194039,-8.778563502,NA,Pan United,NA,Steaming,mappingpiracy
26-05-1996,NA,114.4652,21.929,Attempted,"20.5m from Waglan Island, HMH",CHN,CHN,21.14054296,114.3025008,22.04486726,NA,NA,NA,Steaming,mappingpiracy
27-05-1996,NA,79.8517,6.9583333,Boarded,"Colombo Anchorage, Sri Lanka",LKA,LKA,0.5753897,79.84815514,6.962144273,NA,Aris,NA,Anchored,mappingpiracy
31-05-1996,NA,-77.1617,3.6566667,Boarded,"Buenaventura, Colombia",COL,COL,0.080958144,-77.16185462,3.655951239,NA,Holck Larsen,NA,Anchored,mappingpiracy
08-06-1996,NA,-80.0867,-2.52,Boarded,"Guayaquil Port, Ecuador",ECU,ECU,4.446084967,-80.05553138,-2.545179946,NA,FMG Quito,NA,Anchored,mappingpiracy
10-06-1996,NA,117.55,19.6333333,Attempted,HLH Area,PHL,TWN,341.3594159,120.5608016,18.48676179,NA,Nordpol Ozel 2,NA,Steaming,mappingpiracy
12-06-1996,NA,88.0717,21.8783333,Boarded,"Hoogly River, India",IND,IND,0.528040826,88.07105554,21.87360261,NA,Amer Energy,NA,Steaming,mappingpiracy
14-06-1996,NA,106.8867,-6.0338333,Boarded,"Jakarta Anchorage, Indonesia",IDN,IDN,9.348946503,106.8377385,-6.102715753,NA,Wana Bhum,NA,Anchored,mappingpiracy
15-06-1996,NA,-38.5045,-12.9551667,Boarded,"Madre de Dues Terminal, Port of Salvador",BRA,BRA,1.987758077,-38.51838131,-12.96689218,NA,United Selma,NA,Anchored,mappingpiracy
16-06-1996,NA,79.8245,6.9378333,Boarded,"10m off Colombo Port, Sri Lanka (Measured 15km W of Colombo)",LKA,LKA,3.749889548,79.84815514,6.962144273,NA,Gulf Spirit,NA,Steaming,mappingpiracy
21-06-1996,NA,118.3833,19.1333333,Attempted,HLH Area,PHL,TWN,240.4284264,120.5608016,18.48676179,NA,Hal Soong,NA,Steaming,mappingpiracy
23-06-1996,NA,-38.5045,-12.9551667,Boarded,"Salvador Anchorage, Brazil",BRA,BRA,1.987758077,-38.51838131,-12.96689218,NA,Bow Fortune,NA,Anchored,mappingpiracy
27-06-1996,NA,101.8333,2.3,Attempted,Malacca Straits,MYS,MYS,11.03882712,101.865245,2.39451732,NA,Alexia,NA,Steaming,mappingpiracy
27-06-1996,NA,117.1383,-0.5401667,Boarded,"Samarinda Anchorage, Indonesia",IDN,IDN,33.74762115,117.2815048,-0.809177342,NA,Vista,NA,Anchored,mappingpiracy
08-07-1996,NA,-38.4867,-12.7916667,Boarded,"Port of Aratu, Brazil",BRA,BRA,1.35113377,-38.49913489,-12.79119232,NA,Kapitan Betkher,NA,Anchored,mappingpiracy
09-07-1996,NA,50.3683,29.1875,Boarded,"Kharg Anchorage, Iran",IRN,IRN,4.714377104,50.32642663,29.20892976,NA,Berge Stadt,NA,Anchored,mappingpiracy
10-07-1996,NA,79.8517,6.9583333,Attempted,"Colombo, Sri Lanka",LKA,LKA,0.5753897,79.84815514,6.962144273,NA,Unknown,NA,Anchored,mappingpiracy
10-07-1996,NA,79.8517,6.9583333,Boarded,"Colombo, Sri Lanka",LKA,LKA,0.5753897,79.84815514,6.962144273,NA,Unknown,NA,Anchored,mappingpiracy
10-07-1996,NA,79.8517,6.9583333,Attempted,"Colombo Anchorage, Sri Lanka",LKA,LKA,0.5753897,79.84815514,6.962144273,NA,Unknown,NA,Anchored,mappingpiracy
10-07-1996,NA,105.9535,-6.0081667,Boarded,"Cigading, Indonesia",IDN,IDN,1.1166917,105.9570419,-5.998711847,NA,You Yi,NA,Anchored,mappingpiracy
13-07-1996,NA,100.5983,13.6908333,Boarded,"Bangkok Bar, Thailand",THA,THA,8.694295687,100.5978296,13.61225007,NA,Shalamar,NA,Anchored,mappingpiracy
25-07-1996,NA,-38.5045,-12.9551667,Boarded,"Bahia Salvador, Brazil",BRA,BRA,1.987758077,-38.51838131,-12.96689218,NA,Avila,NA,Anchored,mappingpiracy
26-07-1996,NA,106.8867,-6.0338333,Boarded,"Jakarta Bay, Indonesia",IDN,IDN,9.348946503,106.8377385,-6.102715753,NA,Flaxservice 3,NA,NA,mappingpiracy
28-07-1996,NA,-17.4247,14.676,Boarded,"Dakar, Senegal",SEN,SEN,0.261033934,-17.42682858,14.67487214,NA,Bow Eagle,NA,Anchored,mappingpiracy
01-08-1996,NA,105.9193,-6.0418333,Boarded,"Anyer, Indonesia",IDN,IDN,4.712374625,105.8878687,-6.070570571,NA,Max Planck,NA,Anchored,mappingpiracy
02-08-1996,NA,-70.03,18.4188333,Boarded,"Rio Haina, Dominican Republic",DOM,DOM,1.640362846,-70.01659095,18.41136302,NA,Tol Trader,NA,Anchored,mappingpiracy
02-08-1996,NA,39.2765,-6.8265,Boarded,"Dar Es Salaam Outer Anchorage, Tanzania",TZA,TZA,0.608711877,39.28028405,-6.830498956,NA,Mimosa,NA,Anchored,mappingpiracy
03-08-1996,NA,114.1167,22.1333333,Attempted,HLH Area,CHN,CHN,4.880444312,114.1108505,22.1770694,NA,Maritime Grace,NA,Anchored,mappingpiracy
09-08-1996,NA,70.2203,23.0243333,Boarded,"Kandia, India",IND,IND,2.981710221,70.23308353,23.00014883,NA,Bow Spring,NA,Anchored,mappingpiracy
12-08-1996,NA,-38.5045,-12.9551667,Boarded,"Bahia, Jetty DT Base, Brazil (Coded as Port of Salvador)",BRA,BRA,1.987758077,-38.51838131,-12.96689218,NA,Jo Elm,NA,Anchored,mappingpiracy
13-08-1996,NA,-43.1913,-22.8765,Boarded,"Rio de Janeiro, Brazil",BRA,BRA,2.178646678,-43.17332923,-22.88697682,NA,Nordkap,NA,Berthed,mappingpiracy
14-08-1996,NA,39.2765,-6.8265,Attempted,"Dar Es Salaam, Tanzania",TZA,TZA,0.608711877,39.28028405,-6.830498956,NA,Skauholt,NA,Anchored,mappingpiracy
15-08-1996,NA,114.135,22.305,Boarded,"2.5m S of Lamma Island, Hong Kong (Measured 5km S of Lamma Island)",CHN,CHN,1.851021239,114.1390894,22.28872305,NA,Islas Gas,NA,NA,mappingpiracy
18-08-1996,NA,109.3579,-0.0179,Attempted,"Selat Bangka, Indonesia",IDN,IDN,7.122301084,109.3004663,0.010484117,NA,Falmast,NA,Anchored,mappingpiracy
19-08-1996,NA,100.8905,13.071,Boarded,"Laemchabang, Thailand",THA,THA,1.391781685,100.8921005,13.08348216,NA,Thor Marie,NA,Anchored,mappingpiracy
20-08-1996,NA,14.06,36.76,Boarded,"Sicilia, Italy",ITA,ITA,36.21760586,14.39454186,36.94501374,NA,Renalo,NA,Anchored,mappingpiracy
21-08-1996,NA,106.9025,-6.0976667,Boarded,"Tanjung Priok, Jakarta, Indonesia",IDN,IDN,7.190381219,106.8377385,-6.102715753,NA,Cheklang,NA,Anchored,mappingpiracy
24-08-1996,NA,70.2203,23.0243333,Boarded,"Kandia, India",IND,IND,2.981710221,70.23308353,23.00014883,NA,Bow Eagle,NA,Anchored,mappingpiracy
25-08-1996,NA,0.007,5.6258333,Boarded,"Tema, Ghana",GHA,GHA,3.061197502,0.034515821,5.628363348,NA,Serov,NA,Anchored,mappingpiracy
28-08-1996,NA,98.7007,3.7836667,Boarded,"Belawan, Indonesia",IDN,IDN,2.482068608,98.71062259,3.803778387,NA,Wawasan Murni,NA,Anchored,mappingpiracy
30-08-1996,NA,117.1383,-0.5401667,Boarded,"Samarinda Anchorage, Indonesia",IDN,IDN,33.74762115,117.2815048,-0.809177342,NA,Maritime Mosaic,NA,Anchored,mappingpiracy
01-09-1996,NA,105.5,3.2166667,Attempted,South China Sea,IDN,IDN,27.20917711,105.6887313,3.059963283,NA,Joanna V,NA,Steaming,mappingpiracy
03-09-1996,NA,106.8867,-6.0338333,Boarded,"T.G. Jakarta, Indonesia",IDN,IDN,9.348946503,106.8377385,-6.102715753,NA,Dinoussian Strength,NA,Anchored,mappingpiracy
03-09-1996,NA,-17.4247,14.676,Attempted,"Port of Dakar, Senegal",SEN,SEN,0.261033934,-17.42682858,14.67487214,NA,Philippines,NA,Anchored,mappingpiracy
05-09-1996,NA,-38.5045,-12.9551667,Boarded,"Terminal Usiba Salvador, Arafu, Brazil",BRA,BRA,1.987758077,-38.51838131,-12.96689218,NA,Sergo Zakariadze,NA,Berthed,mappingpiracy
06-09-1996,NA,91.8267,22.2383333,Boarded,"Chittagong, Bangladesh",BGD,BGD,0.8313377,91.83472741,22.23761628,NA,Breeze,NA,Anchored,mappingpiracy
09-09-1996,NA,105.9922,-5.9531667,Boarded,"Merak, Indonesia",IDN,IDN,3.737279898,105.9773055,-5.983493748,NA,Tarquin Navigator,NA,Anchored,mappingpiracy
14-09-1996,NA,107.25,-2.6667,Attempted,"Gelasa Straits, Indonesia",IDN,IDN,25.5206313,107.3484882,-2.875167493,NA,Senho,NA,Steaming,mappingpiracy
14-09-1996,NA,105.9922,-5.9531667,Boarded,"Merak, Indonesia",IDN,IDN,3.737279898,105.9773055,-5.983493748,NA,Bariki,NA,Anchored,mappingpiracy
15-09-1996,NA,106.9025,-6.0976667,Boarded,"Tanjung Priok, Jakarta, Indonesia",IDN,IDN,7.190381219,106.8377385,-6.102715753,NA,Bunga Kesidang,NA,Anchored,mappingpiracy
16-09-1996,NA,98.7007,3.7836667,Boarded,"Belawan, Indonesia",IDN,IDN,2.482068608,98.71062259,3.803778387,NA,Iver Pride,NA,Anchored,mappingpiracy
21-09-1996,NA,70.2203,23.0243333,Boarded,"Kandia Anchorage, India",IND,IND,2.981710221,70.23308353,23.00014883,NA,Oriental Fern,NA,Anchored,mappingpiracy
22-09-1996,NA,119.615,5.0541667,Boarded,Philippines,PHL,PHL,14.54552355,119.7457788,5.044012762,NA,Britoil 15,NA,Steaming,mappingpiracy
25-09-1996,NA,-4.03,5.1933333,Boarded,"Abidjan, Somalia",CIV,CIV,5.691111947,-3.995757616,5.231675523,NA,Finnsnes,NA,Anchored,mappingpiracy
25-09-1996,NA,98.7007,3.7836667,Boarded,"Belawan, Indonesia",IDN,IDN,2.482068608,98.71062259,3.803778387,NA,Sembawang,NA,Anchored,mappingpiracy
26-09-1996,NA,-43.1913,-22.8765,Boarded,"Exxon Terminal, Rio de Janeiro, Brazil",BRA,BRA,2.178646678,-43.17332923,-22.88697682,NA,Trans Scandic,NA,Anchored,mappingpiracy
26-09-1996,NA,117.1383,-0.5401667,Boarded,"Samarinda Anchorage, Indonesia",IDN,IDN,33.74762115,117.2815048,-0.809177342,NA,Star Glory,NA,Anchored,mappingpiracy
26-09-1996,NA,19.9073,39.6241667,Boarded,"Corfu, Greece",GRC,GRC,0.619583277,19.90381921,39.62905508,NA,Carenia,NA,Anchored,mappingpiracy
27-09-1996,NA,120.0833,17.7833333,Attempted,Philippines,PHL,PHL,30.90436355,120.3532007,17.67812735,NA,Alexandergracht,NA,NA,mappingpiracy
28-09-1996,NA,98.7007,3.7836667,Attempted,"Belawan, Indonesia",IDN,IDN,2.482068608,98.71062259,3.803778387,NA,Bunga Sesumba,NA,Anchored,mappingpiracy
30-09-1996,NA,-13.7093,9.5098333,Boarded,"Conakry, Guinea",GIN,GIN,0.352190349,-13.70710202,9.512152411,NA,Lady Lela,NA,Anchored,mappingpiracy
30-09-1996,NA,5.25,5.6,Boarded,"Wari, Nigeria",NGA,NGA,1.527515022,5.239105665,5.608465887,NA,Amursk,NA,Steaming,mappingpiracy
01-10-1996,NA,88.0717,21.8783333,Boarded,"Hoogly River, India",IND,IND,0.528040826,88.07105554,21.87360261,NA,Parapola,NA,Anchored,mappingpiracy
02-10-1996,NA,105.9922,-5.9531667,Boarded,"Merak Anchorage, Indonesia",IDN,IDN,3.737279898,105.9773055,-5.983493748,NA,Stolt Sunrise,NA,Anchored,mappingpiracy
03-10-1996,NA,98.7007,3.7836667,Boarded,"Belawan, Indonesia",IDN,IDN,2.482068608,98.71062259,3.803778387,NA,Osprey Sky,NA,Anchored,mappingpiracy
05-10-1996,NA,-77.1617,3.6566667,Attempted,"Buenaventura, Colombia",COL,COL,0.080958144,-77.16185462,3.655951239,NA,CSAV Longquimay,NA,Steaming,mappingpiracy
07-10-1996,NA,-80.0867,-2.52,Boarded,"Port Guayaquil, Ecuador",ECU,ECU,4.446084967,-80.05553138,-2.545179946,NA,CSAV Longquimay,NA,Anchored,mappingpiracy
10-10-1996,NA,106.8867,-6.0338333,Boarded,"Jakarta, Indonesia",IDN,IDN,9.348946503,106.8377385,-6.102715753,NA,Daphne,NA,Anchored,mappingpiracy
11-10-1996,NA,-43.1913,-22.8765,Attempted,"Rio de Janeiro, Brazil",BRA,BRA,2.178646678,-43.17332923,-22.88697682,NA,NA,NA,Anchored,mappingpiracy
12-10-1996,NA,-13.95,8.8083,Boarded,Sierra Leone,GIN,GIN,74.36739052,-13.32160397,9.056626695,NA,Aley III,NA,Steaming,mappingpiracy
18-10-1996,NA,17.1887,40.4861667,Boarded,"Taranto, Italy",ITA,ITA,0.487816767,17.18995202,40.48187897,NA,Berge Adria,NA,Anchored,mappingpiracy
18-10-1996,NA,0.007,5.6258333,Boarded,"Tema Roads, Ghana",GHA,GHA,3.061197502,0.034515821,5.628363348,NA,Virana,NA,Anchored,mappingpiracy
20-10-1996,NA,98.7007,3.7836667,Boarded,"Belawan, Indonesia",IDN,IDN,2.482068608,98.71062259,3.803778387,NA,Bunga Cenderawasih,NA,Anchored,mappingpiracy
26-10-1996,NA,106.553,-5.8214,Attempted,"P. Payung Besar Island, Indonesia",IDN,IDN,20.47621274,106.549327,-6.006524347,NA,Awobasan,NA,Anchored,mappingpiracy
27-10-1996,NA,100.7333,12.8566667,Attempted,Gulf of Thailand,THA,THA,15.68184015,100.868663,12.90623607,NA,Mathios,NA,Steaming,mappingpiracy
27-10-1996,NA,107.3,-2.85,Boarded,Indonesia,IDN,IDN,6.066922591,107.3484882,-2.875167493,NA,Norgas Energy,NA,Steaming,mappingpiracy
31-10-1996,NA,98.7007,3.7836667,Boarded,"Belawan, Indonesia",IDN,IDN,2.482068608,98.71062259,3.803778387,NA,Leo M,NA,Berthed,mappingpiracy
05-11-1996,NA,53.8104,12.1614,Attempted,"Squotra Isles, Somalia",YEM,YEM,16.30851126,53.77635202,12.30496859,NA,Scoff Reefer,NA,Steaming,mappingpiracy
09-11-1996,NA,105.3067,-5.4561667,Boarded,"Panjang, Indonesia",IDN,IDN,1.174827798,105.3107202,-5.465997003,NA,Sembawang,NA,Anchored,mappingpiracy
09-11-1996,NA,105.9535,-6.0081667,Boarded,"Cigading Road, Sunda Straits, Indonesia",IDN,IDN,1.1166917,105.9570419,-5.998711847,NA,Arktis Force,NA,Anchored,mappingpiracy
11-11-1996,NA,107.2833,-2.9166667,Boarded,"Off Banka, Indonesia",IDN,IDN,7.241123039,107.3412922,-2.886858451,NA,Sun Shine,NA,Steaming,mappingpiracy
11-11-1996,NA,107.25,-2.6667,Boarded,"Gelasa Straits, Indonesia",IDN,IDN,25.5206313,107.3484882,-2.875167493,NA,Om Sunshine,NA,Steaming,mappingpiracy
13-11-1996,NA,107.3,-2,Boarded,"Gelasa Straits, Indonesia",IDN,IDN,74.50181642,107.670258,-2.561455988,NA,Olga,NA,Steaming,mappingpiracy
13-11-1996,NA,114.4883,22.2083333,Boarded,Hong Kong,CHN,CHN,19.24287178,114.3575952,22.33242422,NA,Cosmobil Ace,NA,Steaming,mappingpiracy
14-11-1996,NA,-43.1913,-22.8765,Boarded,"Rio de Janeiro, Brazil",BRA,BRA,2.178646678,-43.17332923,-22.88697682,NA,San Marino,NA,Anchored,mappingpiracy
14-11-1996,NA,118.0555,5.815,Boarded,"SPA Jetty, Sandakan, Malaysia",MYS,MYS,0.761401104,118.0588485,5.808986721,NA,Bunga Semarak,NA,Berthed,mappingpiracy
14-11-1996,NA,104.3214,0.875,Attempted,"Riau Straits, Indonesia",IDN,IDN,6.48924872,104.2662867,0.855861721,NA,NA,NA,NA,mappingpiracy
19-11-1996,NA,80.305,13.1066667,Attempted,"Madras Roads, India",IND,IND,0.951874563,80.31373132,13.10578034,NA,Al Badlyah,NA,Anchored,mappingpiracy
19-11-1996,NA,104.051,1.2705,Hijacked,E of Singapore,IDN,IDN,9.403263468,104.0309351,1.187892971,NA,Suci,NA,Steaming,mappingpiracy
24-11-1996,NA,104.1533,-0.6133333,Boarded,Indonesia,IDN,IDN,19.04154624,104.25587,-0.475518488,NA,Katong,NA,Steaming,mappingpiracy
30-11-1996,NA,3.3767,6.45,Boarding,"Lagos, Nigeria",NGA,NGA,0.745848921,3.37387129,6.456122137,NA,NA,NA,NA,mappingpiracy
02-12-1996,NA,106.8867,-6.0338333,Boarded,"Jakarta, Indonesia",IDN,IDN,9.348946503,106.8377385,-6.102715753,NA,Opal Ray,NA,Anchored,mappingpiracy
06-12-1996,NA,70.2203,23.0243333,Boarded,"Kandia, India",IND,IND,2.981710221,70.23308353,23.00014883,NA,Sanmar Sentinel,NA,Berthed,mappingpiracy
08-12-1996,NA,-13.2075,8.4898333,Boarded,"Freetown, Sierra Leone",SLE,SLE,0.533178843,-13.21076413,8.493394273,NA,Altair,NA,Anchored,mappingpiracy
15-12-1996,NA,114.4883,22.2083333,Boarded,Hong Kong,CHN,CHN,19.24287178,114.3575952,22.33242422,NA,NA,NA,NA,mappingpiracy
26-12-1996,NA,91.8267,22.2383333,Boarded,"Chittagong, Bangladesh",BGD,BGD,0.8313377,91.83472741,22.23761628,NA,Stamford,NA,Anchored,mappingpiracy
01-01-1997,NA,50.75,11.95,Boarding,Somalia,SOM,SOM,3.420379674,50.7615666,11.97874584,NA,NA,NA,NA,mappingpiracy
01-01-1997,NA,-79.9,-2.2666667,Boarding,"Guayaquil, Ecuador",ECU,ECU,3.859231799,-79.86530514,-2.266778253,NA,NA,NA,NA,mappingpiracy
04-01-1997,NA,106.875,-6.0886667,Boarding,"Jakarta Roads, Indonesia",IDN,IDN,4.407541808,106.8377385,-6.102715753,NA,Petrobulk Racer,NA,NA,mappingpiracy
06-01-1997,NA,-0.0167,5.616666667,Hijacked,"Tema, Ghana",GHA,GHA,3.552274212,-0.045033332,5.60162995,NA,Jahan,NA,Steaming,mappingpiracy
08-01-1997,NA,122.185,37.4386667,Boarding,"Subic bay, Philippines",CHN,CHN,1.329001911,122.1977645,37.43235912,NA,Cheebong,NA,NA,mappingpiracy
08-01-1997,NA,122.185,37.4386667,Boarding,"Subic bay, Philippines",CHN,CHN,1.329001911,122.1977645,37.43235912,NA,Jing Jang,NA,NA,mappingpiracy
08-01-1997,NA,79.8432,6.95,Boarding,"Colombo Anchorage, Sri Lanka",LKA,LKA,1.450377734,79.84815514,6.962144273,NA,Mumbay Bay,NA,Anchored,mappingpiracy
11-01-1997,NA,33.3406,40.6047,Attempted,Off the coast of Turkey,TUR,TUR,146.0282964,32.92611738,41.88182201,NA,Ivan Chernych,NA,Steaming,mappingpiracy
13-01-1997,NA,106.875,-6.0886667,Boarding,"Jakarta Roads, Indonesia",IDN,IDN,4.407541808,106.8377385,-6.102715753,NA,Petrobulk Racer,NA,NA,mappingpiracy
14-01-1997,NA,120.7555,14.5226667,Boarding,"Manila bay, Philippines",PHL,PHL,14.96707829,120.8779403,14.45888907,NA,Ocean Prize,NA,Anchored,mappingpiracy
17-01-1997,NA,-79.9,-2.2666667,Boarding,"Guayaquil, Ecuador",ECU,ECU,3.859231799,-79.86530514,-2.266778253,NA,Tamamonta,NA,NA,mappingpiracy
18-01-1997,NA,112.7467,-7.1885,Boarding,"Berlian Wharf, Surabaya, Indonesia",IDN,IDN,1.852101831,112.7451278,-7.205173435,NA,Auk Arrow,NA,NA,mappingpiracy
18-01-1997,NA,112.7467,-7.1885,Boarding,"Surabaya, Indonesia",IDN,IDN,1.852101831,112.7451278,-7.205173435,NA,Nandu Arrow,NA,NA,mappingpiracy
18-01-1997,NA,119.1333,22.0666667,Attempted,HLH Area,TWN,TWN,131.1363959,120.2457788,22.64252351,NA,Paramushir,NA,Steaming,mappingpiracy
20-01-1997,NA,116.7932,-1.25,Boarding,"Balikpapan, Indonesia",IDN,IDN,0.277697181,116.7908635,-1.249118748,NA,Maersk Bovavista,NA,Anchored,mappingpiracy
21-01-1997,NA,121,14.5931667,Boarding,"Manila harbour, Philippines",PHL,PHL,4.438529578,120.9588322,14.59178295,NA,Sea Rainbow,NA,NA,mappingpiracy
22-01-1997,NA,-73.4121,-4.3684,Boarding,"Amazon river, Peru",ECU,PER,728.5149482,-79.72642982,-2.59384531,NA,Rio Amazonis,NA,Steaming,mappingpiracy
27-01-1997,NA,121,14.5931667,Boarding,"Manila North harbour, Philippines",PHL,PHL,4.438529578,120.9588322,14.59178295,NA,Eagle Prosperity,NA,NA,mappingpiracy
01-02-1997,NA,48.4136,4.9115,Boarding,Somalia,SOM,SOM,20.83466191,48.32886804,5.079657294,NA,Clove,NA,Steaming,mappingpiracy
01-02-1997,NA,121.6183,6.5616,Hijacked,"Baluk-Baluk Islands, Philippines",PHL,PHL,0.212716812,121.6163843,6.561428127,NA,NA,NA,NA,mappingpiracy
05-02-1997,NA,-4,5.2931667,Boarding,"Abidjan, Ivory Coast",CIV,CIV,1.268660948,-3.999623176,5.30463288,NA,Kenmare,NA,NA,mappingpiracy
05-02-1997,NA,103.05,10.7166667,NA,Cambodia,KHM,KHM,16.96641193,103.2019149,10.74762604,NA,Lung Shun 8,NA,NA,mappingpiracy
07-02-1997,NA,99.6682,6.35,Hijacked,"Langkawi, Malaysia",MYS,MYS,1.746681948,99.65870202,6.362616278,NA,Zaidenha,NA,Anchored,mappingpiracy
09-02-1997,NA,34.6432,36.7666667,Attempted,"Mersin port, Turkey",TUR,TUR,2.859661526,34.6267196,36.78876374,NA,Tirana,NA,Steaming,mappingpiracy
09-02-1997,NA,-70,18.4166667,Boarding,"Rio Haina, Dominican Republic",DOM,DOM,0.433617389,-70.00401771,18.41746654,NA,Anthos,NA,NA,mappingpiracy
09-02-1997,NA,121,14.5931667,Boarding,"Manila Port, Philippines",PHL,PHL,4.438529578,120.9588322,14.59178295,NA,Yakov Bondarenko,NA,Anchored,mappingpiracy
09-02-1997,NA,121.774,12.8797,Boarding,"Jojo Osland, Sulu Sea, Philippines",PHL,PHL,6.216267808,121.7221786,12.9036319,NA,Rainbow Dragon,NA,NA,mappingpiracy
11-02-1997,NA,-13.7167,9.5166667,Attempted,"Conakry roads, Guinea",GIN,GIN,0.666714825,-13.71890215,9.522284247,NA,NA,NA,Steaming,mappingpiracy
12-02-1997,NA,81.6353,6.5527,Hijacked,"Coastal waters, Sri Lanka",LKA,LKA,11.24225285,81.68148848,6.462144273,NA,NA,NA,NA,mappingpiracy
13-02-1997,NA,76.25,9.9666667,Boarding,"Cochin roads, India",IND,IND,0.42425806,76.25147546,9.963120835,NA,Adamas,NA,Steaming,mappingpiracy
15-02-1997,NA,13.25,-8.8,Boarding,"Luanda, Angola",AGO,AGO,0.509215669,13.24537194,-8.800062758,NA,Mas Venture,NA,Berthed,mappingpiracy
18-02-1997,NA,39.2833,-6.833333333,Boarding,"Dar Es Salam, Tanzania",TZA,TZA,0.457587212,39.28028405,-6.830498956,NA,La Bourdannais,NA,NA,mappingpiracy
19-02-1997,NA,41.638,42.1641,Boarding,"Poti, Georgia",GEO,GEO,1.62331264,41.65723718,42.16705964,NA,Lady Linda,NA,NA,mappingpiracy
23-02-1997,NA,121.4077,7.5827,Hijacked,"80km off Sirawai, Philippines",PHL,PHL,70.6838394,121.9334416,7.217922268,NA,Fortune,NA,NA,mappingpiracy
25-02-1997,NA,112.7467,-7.1885,Boarding,"Surabaya, Indonesia",IDN,IDN,1.852101831,112.7451278,-7.205173435,NA,Siskin Arrow,NA,NA,mappingpiracy
26-02-1997,NA,70.2203,22.8196667,Boarding,"Kandla Anchorage, India",IND,IND,10.43106631,70.32154382,22.81171296,NA,NA,NA,Anchored,mappingpiracy
27-02-1997,NA,5.7167,5.5,Attempted,"Warri, Nigeria",NGA,NGA,9.600200015,5.639903191,5.540187893,NA,NA,NA,Berthed,mappingpiracy
28-02-1997,NA,70.2203,22.8196667,Attempted,"Kandla Anchorage, India",IND,IND,10.43106631,70.32154382,22.81171296,NA,NA,NA,Anchored,mappingpiracy
28-02-1997,NA,89.5765,22.4765,Attempted,"Mongla, Bangladesh",BGD,BGD,16.38672588,89.62647546,22.33600495,NA,Gold Spring,NA,NA,mappingpiracy
03-03-1997,NA,-43.1667,-22.8933333,Boarding,"Rio de Janeiro, Brazil",BRA,BRA,0.539139852,-43.16209876,-22.8956845,NA,Mt Chemical Ruby,NA,NA,mappingpiracy
05-03-1997,NA,104.6,1.5666667,Hijacked,Indonesia,MYS,MYS,35.57934957,104.2840275,1.517482815,NA,Wint Thai No. 1,NA,NA,mappingpiracy
05-03-1997,NA,47.6446,12.5182,Hijacked,"Gulf of Aden, Yemen",YEM,YEM,128.5568691,47.39820397,13.65485261,NA,NA,NA,NA,mappingpiracy
07-03-1997,NA,50.8333,12.1166667,Attempted,Somalia,SOM,SOM,14.62774514,50.79786359,11.98911865,NA,Helena,NA,Steaming,mappingpiracy
09-03-1997,NA,-43.1667,-22.8933333,Boarding,"Rio de Janeiro, Brazil",BRA,BRA,0.539139852,-43.16209876,-22.8956845,NA,Libra Buenos Aires,NA,NA,mappingpiracy
11-03-1997,NA,4.7561,4.0699,Boarding,Nigeria,NGA,NGA,112.1617734,5.566905144,4.675238348,NA,NA,NA,NA,mappingpiracy
13-03-1997,NA,121.7486,6.8048,Boarding,"Off Basilan Islands, Philippines",PHL,PHL,17.85949013,121.8220321,6.660956122,NA,Rakam,NA,NA,mappingpiracy
15-03-1997,NA,100.8667,13.0666667,Attempted,"Leam Chabang, Thailand",THA,THA,2.922736055,100.8828231,13.08783601,NA,Oriental Bright,NA,NA,mappingpiracy
16-03-1997,NA,105.1667,-5.4666667,Boarding,"Tarahan, Panjang, Indonesia",IDN,IDN,8.927250019,105.2463485,-5.478773696,NA,Great Calm,NA,NA,mappingpiracy
18-03-1997,NA,78.3,8.75,Boarding,"Tuitcorn, India",IND,IND,9.487879643,78.21517988,8.765448309,NA,Grobnik,NA,NA,mappingpiracy
28-03-1997,NA,108.3251,11.0698,Attempted,10NM South off Vietnam,VNM,VNM,7.063204293,108.3688257,11.02277253,NA,Ratana Sopa,NA,steaming,mappingpiracy
28-03-1997,NA,-4,5.2931667,Boarding,"Abidjan, Ivory Coast",CIV,CIV,1.268660948,-3.999623176,5.30463288,NA,Jean Alleaume,NA,NA,mappingpiracy
31-03-1997,NA,-46.2872,-23.9761667,Boarding,"Santos, Brazil",BRA,BRA,0.559772463,-46.29161536,-23.9791806,NA,Berge Saga,NA,NA,mappingpiracy
01-04-1997,NA,-17.3667,14.6666667,Boarding,"Dakar, Senegal",SEN,SEN,6.539971202,-17.42682858,14.67487214,NA,CBMT Express,NA,Steaming,mappingpiracy
02-04-1997,NA,-13.7167,9.5166667,Attempted,"Conakry roads, Guinea",GIN,GIN,0.666714825,-13.71890215,9.522284247,NA,South County,NA,Anchored,mappingpiracy
03-04-1997,NA,-43.1667,-22.8933333,Boarding,"Rio de Janeiro, Brazil",BRA,BRA,0.539139852,-43.16209876,-22.8956845,NA,Hansa Carrier,NA,NA,mappingpiracy
03-04-1997,NA,49.4167,-18.15,Boarding,"Tomascina, Madagascar",MDG,MDG,1.742862994,49.42457116,-18.16383229,NA,Nedloyd Main,NA,NA,mappingpiracy
03-04-1997,NA,103.7333,8.9166667,Attempted,Vietnam,VNM,VNM,113.6397917,104.7202255,8.613755601,NA,Zim Kaohsiung 1,NA,Steaming,mappingpiracy
09-04-1997,NA,101.8767,13.1166667,Attempted,"Si Racha, Thailand",THA,THA,47.00308047,101.7661239,12.705878,NA,NA,NA,Anchored,mappingpiracy
12-04-1997,NA,-17.3667,14.6666667,Boarding,"South of Goree Island, Dakar, Senegal",SEN,SEN,6.539971202,-17.42682858,14.67487214,NA,Trein Maesk,NA,NA,mappingpiracy
17-04-1997,NA,49.3771,6.9092,Hijacked,"Garad, Somalia",SOM,SOM,9.783124552,49.2932235,6.880926825,NA,Bahari Hindi,NA,NA,mappingpiracy
18-04-1997,NA,100.825,13.138,Hijacked,"Koh Sichang, Thailand",THA,THA,7.253749182,100.8782658,13.09833405,NA,Lawas Cantik,NA,NA,mappingpiracy
19-04-1997,NA,5.1767,5.1666667,Hijacked,"Forcados, Nigeria",NGA,NGA,20.73059913,5.363617384,5.171576239,NA,NA,NA,NA,mappingpiracy
21-04-1997,NA,-76.8382,17.975,Boarding,"Kingston, Jamaica",JAM,JAM,1.265529862,-76.83682901,17.9863586,NA,Sydney Star,NA,NA,mappingpiracy
22-04-1997,NA,-13.2265,8.5,Boarding,"Freetown, Sierra Leone",SLE,SLE,0.743618453,-13.22891191,8.493719794,NA,Antartica Elrus,NA,NA,mappingpiracy
22-04-1997,NA,89.5765,22.4765,Boarding,"Mongla, Bangladesh",BGD,BGD,16.38672588,89.62647546,22.33600495,NA,Alam Talang,NA,NA,mappingpiracy
23-04-1997,NA,107.25,-2.6667,Attempted,"Gelasa Straits, Indonesia",IDN,IDN,25.5206313,107.3484882,-2.875167493,NA,Kota Hadiah,NA,NA,mappingpiracy
24-04-1997,NA,-76.8382,17.975,Boarding,"Kingston, Jamaica",JAM,JAM,1.265529862,-76.83682901,17.9863586,NA,NA,NA,NA,mappingpiracy
27-04-1997,NA,107.25,-2.6667,Boarding,"Gelasa Straits, Indonesia",IDN,IDN,25.5206313,107.3484882,-2.875167493,NA,Cape Sable,NA,Steaming,mappingpiracy
28-04-1997,NA,105.95,-6.0166667,Boarding,"Cigading, Indonesia",IDN,IDN,2.133135886,105.9570419,-5.998711847,NA,Jewel I,NA,NA,mappingpiracy
29-04-1997,NA,121.9667,6.7,Attempted,"Isabela, Basilan, Philippines",PHL,PHL,1.07363627,121.9583439,6.695054429,NA,Miguel Lujan,NA,Steaming,mappingpiracy
29-04-1997,NA,121.9667,6.7,Attempted,"Isabela, Basilan, Philippines",PHL,PHL,1.07363627,121.9583439,6.695054429,NA,Leonora,NA,Steaming,mappingpiracy
30-04-1997,NA,-46.2872,-23.9761667,Boarding,"Santos, Brazil",BRA,BRA,0.559772463,-46.29161536,-23.9791806,NA,NA,NA,Steaming,mappingpiracy
01-05-1997,NA,9.6667,4.0431667,Boarding,"Douala, Cameroon",CMR,CMR,1.430647464,9.675629102,4.033840236,NA,Rybinsk,NA,NA,mappingpiracy
01-05-1997,NA,113.8265,23.0666667,Attempted,"Xinggang anchorage, China",CHN,CHN,5.64144255,113.8300887,23.11749909,NA,Silver Sky,NA,Anchored,mappingpiracy
01-05-1997,NA,94.532,15.1047,Hijacked,Myanmar,MMR,MMR,80.29362294,94.74789473,15.79946524,NA,NA,NA,NA,mappingpiracy
03-05-1997,NA,98.6767,3.7766667,Boarding,"Belawan Port, Indonesia",IDN,IDN,4.815190419,98.71062259,3.803778387,NA,Sun Sapphire,NA,Anchored,mappingpiracy
04-05-1997,NA,41.9016,14.078,Boarding,"Abu Ali Channel, Yemen",ERI,ERI,19.39012195,41.8060002,13.92967357,NA,Vasilios II,NA,NA,mappingpiracy
04-05-1997,NA,41.9016,14.078,Boarding,"Abu Ali Channel, Yemen",ERI,ERI,19.39012195,41.8060002,13.92967357,NA,Vasilios XII,NA,NA,mappingpiracy
04-05-1997,NA,70.2203,22.8196667,Boarding,"Kandla, India",IND,IND,10.43106631,70.32154382,22.81171296,NA,NA,NA,Steaming,mappingpiracy
04-05-1997,NA,70.2203,22.8196667,Boarding,"Kandla port, India",IND,IND,10.43106631,70.32154382,22.81171296,NA,Prins Alexander,NA,Berthed,mappingpiracy
06-05-1997,NA,116.7932,-1.25,Boarding,"Balikpapan, Indonesia",IDN,IDN,0.277697181,116.7908635,-1.249118748,NA,Neptune Gale,NA,Anchored,mappingpiracy
09-05-1997,NA,-17.3667,14.6666667,Boarding,"Dakar, Senegal",SEN,SEN,6.539971202,-17.42682858,14.67487214,NA,Zaccar,NA,NA,mappingpiracy
11-05-1997,NA,-46.2872,-23.9761667,Boarding,"Santos, Brazil",BRA,BRA,0.559772463,-46.29161536,-23.9791806,NA,Jummegas,NA,NA,mappingpiracy
12-05-1997,NA,3.3767,6.45,Boarding,"Lagos Anchorage, Nigeria",NGA,NGA,0.745848921,3.37387129,6.456122137,NA,Meghna,NA,NA,mappingpiracy
16-05-1997,NA,148.3836,-10.3323,Boarding,"Off Baramata Point, Papua New Guinea",PNG,PNG,14.72257225,148.4020288,-10.20045338,NA,Got-Cha-Covered,NA,NA,mappingpiracy
18-05-1997,NA,-46.2872,-23.9761667,Boarding,"Santos, Brazil",BRA,BRA,0.559772463,-46.29161536,-23.9791806,NA,Ilya Ehrenberg,NA,NA,mappingpiracy
20-05-1997,NA,-52.0757,-32.0536667,Boarding,"Rio Grande, Brazil",BRA,BRA,1.852696888,-52.08145098,-32.03769297,NA,Panaustral,NA,Anchored,mappingpiracy
20-05-1997,NA,-43.1667,-22.8933333,Boarding,"Rio de Janeiro, Brazil",BRA,BRA,0.539139852,-43.16209876,-22.8956845,NA,CALAPALOS,NA,Steaming,mappingpiracy
20-05-1997,NA,19.0126,40.5383,Boarding,"In the straits, Albania",ALB,ALB,26.52512502,19.28956139,40.42723216,NA,Sagittarius,NA,Steaming,mappingpiracy
23-05-1997,NA,115.1333,30.31666667,Boarding,"Chang Jiang Anchorage, China",CHN,CHN,474.2281659,119.606049,32.19692617,NA,NA,NA,NA,mappingpiracy
25-05-1997,NA,9.6667,4.0431667,Boarding,"Douala, Cameroon",CMR,CMR,1.430647464,9.675629102,4.033840236,NA,Torm Freya,NA,NA,mappingpiracy
29-05-1997,NA,81.2333,8.566666667,Boarding,"Tricomalee, Sri Lanka",LKA,LKA,1.032774076,81.22999108,8.557928778,NA,Athena,NA,Anchored,mappingpiracy
30-05-1997,NA,104.0517,1.1245,Boarding,"Off Batam Island, Indonesia",IDN,IDN,3.185194005,104.0708114,1.145941473,NA,Sinfa,NA,NA,mappingpiracy
30-05-1997,NA,5.396,52.9646,Boarding,"Workum, Netherlands",NLD,NLD,13.45071556,5.279470248,53.06293366,NA,Feeling,NA,NA,mappingpiracy
30-05-1997,NA,-9.425,39.364,Boarding,"Peniche Marina, Portugal",PRT,PRT,1.837326481,-9.409291145,39.37518952,NA,Fair Lady,NA,NA,mappingpiracy
31-05-1997,NA,70.2203,22.8196667,Boarding,"Kandla, India",IND,IND,10.43106631,70.32154382,22.81171296,NA,ICL Raja Rajan,NA,NA,mappingpiracy
03-06-1997,NA,-64.6267,10.25,Boarding,"Puerta la Cruz, Venezuela",VEN,VEN,0.557418685,-64.63141842,10.24811433,NA,Nord-Jahre,NA,NA,mappingpiracy
04-06-1997,NA,-70,18.4166667,Boarding,"Rio Haina, Dominican Republic",DOM,DOM,0.433617389,-70.00401771,18.41746654,NA,Nordfarer,NA,Anchored,mappingpiracy
06-06-1997,NA,106.0038,-5.9366667,Boarding,"Merak, Indonesia",IDN,IDN,2.215509751,105.9972437,-5.91773854,NA,NA,NA,Steaming,mappingpiracy
11-06-1997,NA,20.1845,39.4953,NA,"Near Igoumenitsa, Greece",GRC,GRC,2.674365482,20.21558679,39.4949405,NA,NA,NA,Steaming,mappingpiracy
11-06-1997,NA,19.3401,41.3125,NA,"Near Durres, Albania",ALB,ALB,6.696795754,19.41895593,41.32257722,NA,NA,NA,Steaming,mappingpiracy
13-06-1997,NA,117.538,0.0248333,Boarding,"Tanjun Meranggas, Indonesia",IDN,IDN,2.551015665,117.5168563,0.015936591,NA,Bernadette T.,NA,NA,mappingpiracy
13-06-1997,NA,117.538,0.0248333,Boarding,"Tg. Meranggas, Indonesia",IDN,IDN,2.551015665,117.5168563,0.015936591,NA,Bernadette T.,NA,NA,mappingpiracy
13-06-1997,NA,-17.3667,14.6666667,Boarding,"Dakar, Senegal",SEN,SEN,6.539971202,-17.42682858,14.67487214,NA,Nord-Jahre,NA,NA,mappingpiracy
13-06-1997,NA,106.9667,-2.8333,Boarding,"Lephlia Strait, Indonesia",IDN,IDN,7.633603583,107.0170757,-2.880205998,NA,ACX Lilac,NA,NA,mappingpiracy
13-06-1997,NA,105.9167,-6.0433333,Boarding,"Anyer, Indonesia",IDN,IDN,4.388564132,105.8878687,-6.070570571,NA,NA,NA,Anchored,mappingpiracy
15-06-1997,NA,-46.2872,-23.9761667,Boarding,"Santos, Brazil",BRA,BRA,0.559772463,-46.29161536,-23.9791806,NA,Al Burgan,NA,NA,mappingpiracy
17-06-1997,NA,39.2833,-6.833333333,Boarding,"Dar Es Salam, Tanzania",TZA,TZA,0.457587212,39.28028405,-6.830498956,NA,Stella TH,NA,NA,mappingpiracy
19-06-1997,NA,117.15,-0.5265,Boarding,"Samarinda Anchorage, Indonesia",IDN,IDN,32.43935797,117.4414169,-0.525160415,NA,Maritime Light,NA,NA,mappingpiracy
23-06-1997,NA,70.2203,22.8196667,Boarding,"Kandla, India",IND,IND,10.43106631,70.32154382,22.81171296,NA,Rita,NA,NA,mappingpiracy
24-06-1997,NA,106.0038,-5.9366667,Boarding,"Merak, Indonesia",IDN,IDN,2.215509751,105.9972437,-5.91773854,NA,Sky Ace,NA,Anchored,mappingpiracy
25-06-1997,NA,151.5,46.5,Attempted,"Kurles Islands, Russia",RUS,RUS,36.84485652,151.7513127,46.78266022,NA,NA,NA,NA,mappingpiracy
26-06-1997,NA,105.95,-6.0166667,Boarding,"Cigading Port, Indonesia",IDN,IDN,2.133135886,105.9570419,-5.998711847,NA,Noble Glory,NA,Anchored,mappingpiracy
28-06-1997,NA,101.4,3,Attempted,"Port Klang, Malaysia",MYS,MYS,3.033395033,101.3728133,3.002346096,NA,Ibn Qutaibah,NA,Anchored,mappingpiracy
30-06-1997,NA,103.0667,1.4666667,Attempted,Indonesia,MYS,MYS,22.20762248,103.2060653,1.610419012,NA,Kiso Maru,NA,NA,mappingpiracy
30-06-1997,NA,80.0167,9.666666667,Hijacked,"Jaffna, Sri Lanka",LKA,LKA,1.940376789,80.00098718,9.674709377,NA,Morang Bong,NA,Steaming,mappingpiracy
30-06-1997,NA,81.6353,6.5527,Attempted,Sri Lanka,LKA,LKA,11.24225285,81.68148848,6.462144273,NA,Missen,NA,NA,mappingpiracy
01-07-1997,NA,106.875,-6.0886667,Boarding,"Jakarta bay, Indonesia",IDN,IDN,4.407541808,106.8377385,-6.102715753,NA,NA,NA,NA,mappingpiracy
01-07-1997,NA,79.8801,8.9892,Attempted,"Mannar, Sri Lanka",LKA,LKA,1.102277688,79.8701278,8.98818594,NA,Taraki,NA,NA,mappingpiracy
02-07-1997,NA,107.25,-2.6667,Boarding,"Gelasa Straits, Indonesia",IDN,IDN,25.5206313,107.3484882,-2.875167493,NA,Leira,NA,Steaming,mappingpiracy
02-07-1997,NA,118.2333,-7.0166667,Boarding,Indonesia,IDN,IDN,121.7230419,118.0715438,-8.1054013,NA,OOCL Accord,NA,Steaming,mappingpiracy
07-07-1997,NA,106.7,20.85,Boarding,"Haiphong, Vietnam",VNM,VNM,2.427766472,106.7075301,20.8707543,NA,Oscar Venture,NA,NA,mappingpiracy
08-07-1997,NA,107.0892,20.9355,Boarding,"Hongai Port, Vietnam",VNM,VNM,1.814719161,107.0849716,20.95140209,NA,Argonaut,NA,Anchored,mappingpiracy
09-07-1997,NA,91.7932,22.2166667,Boarding,"Chittagong, Bangladesh",BGD,BGD,2.329971162,91.81202233,22.20502351,NA,Bunga Kantan,NA,NA,mappingpiracy
11-07-1997,NA,79.8432,6.95,Boarding,"Colombo, Sri Lanka",LKA,LKA,1.450377734,79.84815514,6.962144273,NA,Bunga Mas Lima,NA,Anchored,mappingpiracy
11-07-1997,NA,-43.1667,-22.8933333,Boarding,"Rio de Janeiro, Brazil",BRA,BRA,0.539139852,-43.16209876,-22.8956845,NA,NA,NA,NA,mappingpiracy
13-07-1997,NA,-80.1667,25.76666667,Boarding,"Miami, Florida, USA",USA,USA,3.26583428,-80.13556881,25.77529532,NA,Venderpool Express,NA,Steaming,mappingpiracy
13-07-1997,NA,121,14.5931667,Boarding,"Manila Port, Philippines",PHL,PHL,4.438529578,120.9588322,14.59178295,NA,Ville D'Aquarius,NA,NA,mappingpiracy
20-07-1997,NA,91.7932,22.2166667,Boarding,"Chittagong, Bangladesh",BGD,BGD,2.329971162,91.81202233,22.20502351,NA,Eburna,NA,NA,mappingpiracy
23-07-1997,NA,-4,5.2931667,Boarding,"Abidjan, Ivory Coast",CIV,CIV,1.268660948,-3.999623176,5.30463288,NA,Kimolos,NA,Anchored,mappingpiracy
26-07-1997,NA,91.7932,22.2166667,Boarding,"Chittagong, Bangladesh",BGD,BGD,2.329971162,91.81202233,22.20502351,NA,North Sea,NA,NA,mappingpiracy
26-07-1997,NA,91.7932,22.2166667,Boarding,"Chittagong, Bangladesh",BGD,BGD,2.329971162,91.81202233,22.20502351,NA,Star Bird,NA,Anchored,mappingpiracy
29-07-1997,NA,105.1667,-5.4666667,Boarding,"Tarahan, Panjang, Indonesia",IDN,IDN,8.927250019,105.2463485,-5.478773696,NA,Aditya Usha,NA,Anchored,mappingpiracy
31-07-1997,NA,-13.2265,8.5,Boarding,"Freetown, Sierra Leone",SLE,SLE,0.743618453,-13.22891191,8.493719794,NA,Proteus,NA,NA,mappingpiracy
31-07-1997,NA,-13.2265,8.5,Boarding,"Freetown, Sierra Leone",SLE,SLE,0.743618453,-13.22891191,8.493719794,NA,Seaway,NA,NA,mappingpiracy
08-08-1997,NA,-79.9,-2.2666667,Boarding,"Off Alpha berth container termina, Guayaquil, Ecuador",ECU,ECU,3.859231799,-79.86530514,-2.266778253,NA,Lircay,NA,Steaming,mappingpiracy
08-08-1997,NA,100.8667,13.0666667,Boarding,"Laem Chabang, Thailand",THA,THA,2.922736055,100.8828231,13.08783601,NA,Alam Tangkas,NA,Anchored,mappingpiracy
08-08-1997,NA,158.9257,-8.6044,Boarding,"South Pacific, Solomon Islands",SLB,SLB,46.8595291,159.092133,-8.994398696,NA,Pacani III,NA,Anchored,mappingpiracy
09-08-1997,NA,70.2203,22.8196667,Boarding,"Kandla, India",IND,IND,10.43106631,70.32154382,22.81171296,NA,Normar Splendour,NA,NA,mappingpiracy
10-08-1997,NA,100.6067,13.3516667,Boarding,"Bangkok, Thailand",THA,THA,18.45410035,100.5559188,13.51089102,NA,Oriental Bright,NA,NA,mappingpiracy
